{
"type": "FeatureCollection",
"crs": { "type": "name", "properties": { "name": "urn:ogc:def:crs:OGC:1.3:CRS84" } },
"features": [
{ "type": "Feature", "properties": { "4chID": "ZWE2", "interval": "30.0 sec", "name": "Astronomical Observatory of INASAN", "lat": 55.6996, "lon": 36.758, "earliest_d": "2010 Sep 01 00:00", "latest_dat": "2017 May 31 12:59", "grouping": "IGS", "stnid": "ZWE2" }, "geometry": { "type": "Point", "coordinates": [ 36.758, 55.6996 ] } },
{ "type": "Feature", "properties": { "4chID": "ZUMA", "interval": "15.0 sec", "name": "ZUMA", "lat": 37.5582, "lon": -117.4902, "earliest_d": "2005 May 13 00:00", "latest_dat": "2017 Jul 09 00:00", "grouping": "MAGNET", "stnid": "ZUMA" }, "geometry": { "type": "Point", "coordinates": [ -117.4902, 37.5582 ] } },
{ "type": "Feature", "properties": { "4chID": "ZOMB", "interval": "15.0 sec", "name": "Zomba", "lat": -15.3758, "lon": 35.3251, "earliest_d": "2010 Aug 22 00:00", "latest_dat": "2016 Nov 20 23:59", "grouping": "Met Sites, Africa Array", "stnid": "ZOMB" }, "geometry": { "type": "Point", "coordinates": [ 35.3251, -15.3758 ] } },
{ "type": "Feature", "properties": { "4chID": "ZMBT", "interval": "15.0 sec", "name": "Zombitse", "lat": -22.827, "lon": 44.7327, "earliest_d": "2013 Dec 03 00:00", "latest_dat": "2016 Feb 18 17:22", "grouping": "Met Sites, Africa Array", "stnid": "ZMBT" }, "geometry": { "type": "Point", "coordinates": [ 44.7327, -22.827 ] } },
{ "type": "Feature", "properties": { "4chID": "ZION", "interval": "15.0 sec", "name": "ZION", "lat": 37.3558, "lon": -113.125, "earliest_d": "2010 Jul 23 00:00", "latest_dat": "2016 Oct 12 23:59", "grouping": "MAGNET, Colorado Plateau", "stnid": "ZION" }, "geometry": { "type": "Point", "coordinates": [ -113.125, 37.3558 ] } },
{ "type": "Feature", "properties": { "4chID": "ZINA", "interval": "15.0 sec", "name": "Nizina", "lat": 61.3835, "lon": -143.0241, "earliest_d": "2015 Oct 15 21:18", "latest_dat": "2018 Feb 26 23:59", "grouping": "Denali Fault", "stnid": "ZINA" }, "geometry": { "type": "Point", "coordinates": [ -143.0241, 61.3835 ] } },
{ "type": "Feature", "properties": { "4chID": "ZIMM", "interval": "30.0 sec", "name": "Zimmerwald L+T 88", "lat": 46.8771, "lon": 7.4653, "earliest_d": "2010 Sep 01 00:00", "latest_dat": "2018 Feb 26 23:59", "grouping": "IGS", "stnid": "ZIMM" }, "geometry": { "type": "Point", "coordinates": [ 7.4653, 46.8771 ] } },
{ "type": "Feature", "properties": { "4chID": "ZIMJ", "interval": "30.0 sec", "name": "Zimmerwald GPS87E", "lat": 46.8771, "lon": 7.4651, "earliest_d": "2010 Sep 01 00:00", "latest_dat": "2018 Feb 26 23:59", "grouping": "IGS", "stnid": "ZIMJ" }, "geometry": { "type": "Point", "coordinates": [ 7.4651, 46.8771 ] } },
{ "type": "Feature", "properties": { "4chID": "ZIM2", "interval": "30.0 sec", "name": "Zimmerwald", "lat": 46.8771, "lon": 7.465, "earliest_d": "2010 Sep 01 00:00", "latest_dat": "2018 Feb 26 23:59", "grouping": "IGS", "stnid": "ZIM2" }, "geometry": { "type": "Point", "coordinates": [ 7.465, 46.8771 ] } },
{ "type": "Feature", "properties": { "4chID": "ZIHP", "interval": "30.0 sec", "name": "Zihuatanejo", "lat": 17.6069, "lon": -101.4649, "earliest_d": "2001 May 09 00:00", "latest_dat": "2003 Dec 16 23:59", "grouping": "Guerrero Coast Mexico", "stnid": "ZIHP" }, "geometry": { "type": "Point", "coordinates": [ -101.4649, 17.6069 ] } },
{ "type": "Feature", "properties": { "4chID": "ZECK", "interval": "30.0 sec", "name": "Zelenchukskaya \/ Russia", "lat": 43.7884, "lon": 41.5651, "earliest_d": "2010 Sep 01 00:00", "latest_dat": "2018 Feb 28 00:00", "grouping": "IGS", "stnid": "ZECK" }, "geometry": { "type": "Point", "coordinates": [ 41.5651, 43.7884 ] } },
{ "type": "Feature", "properties": { "4chID": "ZDC1", "interval": "30.0 sec", "name": "DC WAAS 1", "lat": 39.1016, "lon": -77.5427, "earliest_d": "2003 Apr 11 15:26", "latest_dat": "2018 Feb 26 23:59", "grouping": "CORS, PBO Expanded Analysis, PBO Analysis Complete", "stnid": "ZDC1" }, "geometry": { "type": "Point", "coordinates": [ -77.5427, 39.1016 ] } },
{ "type": "Feature", "properties": { "4chID": "ZAMB", "interval": "30.0 sec", "name": "Lusaka - Zambia", "lat": -15.4255, "lon": 28.311, "earliest_d": "2002 Jun 02 08:00", "latest_dat": "2018 Feb 06 13:44", "grouping": "GGN, IGS, Low Latency", "stnid": "ZAMB" }, "geometry": { "type": "Point", "coordinates": [ 28.311, -15.4255 ] } },
{ "type": "Feature", "properties": { "4chID": "YUHG", "interval": "15.0 sec", "name": "Yuha Desert GPS", "lat": 32.6476, "lon": -115.9222, "earliest_d": "2014 Dec 18 20:18", "latest_dat": "2018 Feb 26 23:59", "grouping": "SCIGN USGS, PBO Analysis Complete", "stnid": "YUHG" }, "geometry": { "type": "Point", "coordinates": [ -115.9222, 32.6476 ] } },
{ "type": "Feature", "properties": { "4chID": "YSST", "interval": "30.0 sec", "name": "Yassiada", "lat": 40.8658, "lon": 28.9909, "earliest_d": "2011 Nov 01 16:02", "latest_dat": "2015 Jun 23 23:59", "grouping": "Mediterranean", "stnid": "YSST" }, "geometry": { "type": "Point", "coordinates": [ 28.9909, 40.8658 ] } },
{ "type": "Feature", "properties": { "4chID": "YSSK", "interval": "30.0 sec", "name": "Yuzhno-Sakhalinsk", "lat": 47.0297, "lon": 142.7167, "earliest_d": "1999 Jul 31 00:00", "latest_dat": "2018 Feb 26 23:59", "grouping": "GGN, IGS", "stnid": "YSSK" }, "geometry": { "type": "Point", "coordinates": [ 142.7167, 47.0297 ] } },
{ "type": "Feature", "properties": { "4chID": "YONS", "interval": "30.0 sec", "name": "YONGSAN", "lat": 37.5411, "lon": 127.0013, "earliest_d": "2012 May 28 00:00", "latest_dat": "2016 Feb 28 23:59", "grouping": "IGS", "stnid": "YONS" }, "geometry": { "type": "Point", "coordinates": [ 127.0013, 37.5411 ] } },
{ "type": "Feature", "properties": { "4chID": "YOMB", "interval": "15.0 sec", "name": "YOMB", "lat": 38.9504, "lon": -117.517, "earliest_d": "2006 Sep 08 00:00", "latest_dat": "2015 Dec 10 00:00", "grouping": "MAGNET", "stnid": "YOMB" }, "geometry": { "type": "Point", "coordinates": [ -117.517, 38.9504 ] } },
{ "type": "Feature", "properties": { "4chID": "YKRO", "interval": "30.0 sec", "name": "Yamoussoukro", "lat": 6.8706, "lon": -5.2401, "earliest_d": "1999 Jul 17 00:00", "latest_dat": "2018 Feb 26 23:59", "grouping": "GGN, IGS, Low Latency", "stnid": "YKRO" }, "geometry": { "type": "Point", "coordinates": [ -5.2401, 6.8706 ] } },
{ "type": "Feature", "properties": { "4chID": "YIBL", "interval": "30.0 sec", "name": "Yibal Oman", "lat": 22.1865, "lon": 56.1123, "earliest_d": "2010 Sep 01 00:00", "latest_dat": "2017 Nov 04 23:59", "grouping": "IGS", "stnid": "YIBL" }, "geometry": { "type": "Point", "coordinates": [ 56.1123, 22.1865 ] } },
{ "type": "Feature", "properties": { "4chID": "YESX", "interval": "15.0 sec", "name": "Yecora_MX_2004", "lat": 28.3783, "lon": -108.9196, "earliest_d": "2004 Jun 13 19:36", "latest_dat": "2018 Feb 27 23:59", "grouping": "Northwest Mexico, PBO Analysis Complete, Met Sites, Low Latency, TLALOCNet Core, TLALOCNet", "stnid": "YESX" }, "geometry": { "type": "Point", "coordinates": [ -108.9196, 28.3783 ] } },
{ "type": "Feature", "properties": { "4chID": "YELL", "interval": "30.0 sec", "name": "YELL CACS-ACP", "lat": 62.4809, "lon": -114.4807, "earliest_d": "1992 Jan 01 00:00", "latest_dat": "2018 Feb 26 23:59", "grouping": "Education and Outreach, PBO Expanded Analysis, IPY International Polar Year, IGS, PBO Analysis Complete", "stnid": "YELL" }, "geometry": { "type": "Point", "coordinates": [ -114.4807, 62.4809 ] } },
{ "type": "Feature", "properties": { "4chID": "YEL2", "interval": "30.0 sec", "name": "YEL2 CACS-GSD", "lat": 62.4813, "lon": -114.4808, "earliest_d": "2015 Aug 18 00:00", "latest_dat": "2018 Feb 26 23:59", "grouping": "IGS", "stnid": "YEL2" }, "geometry": { "type": "Point", "coordinates": [ -114.4808, 62.4813 ] } },
{ "type": "Feature", "properties": { "4chID": "YEEP", "interval": "15.0 sec", "name": "Yee Hop", "lat": 19.2621, "lon": -155.7462, "earliest_d": "2004 Aug 19 00:00", "latest_dat": "2018 Feb 26 23:59", "grouping": "Hawaii USGS HVO", "stnid": "YEEP" }, "geometry": { "type": "Point", "coordinates": [ -155.7462, 19.2621 ] } },
{ "type": "Feature", "properties": { "4chID": "YEBE", "interval": "30.0 sec", "name": "Yebes", "lat": 40.5249, "lon": -3.0886, "earliest_d": "2010 Sep 01 00:00", "latest_dat": "2018 Feb 26 23:59", "grouping": "IGS", "stnid": "YEBE" }, "geometry": { "type": "Point", "coordinates": [ -3.0886, 40.5249 ] } },
{ "type": "Feature", "properties": { "4chID": "YBRA", "interval": "15.0 sec", "name": "RedLodge_US_2014", "lat": 45.1221, "lon": -109.2674, "earliest_d": "2014 May 30 20:23", "latest_dat": "2016 Jun 09 23:59", "grouping": "Montana Field Camp", "stnid": "YBRA" }, "geometry": { "type": "Point", "coordinates": [ -109.2674, 45.1221 ] } },
{ "type": "Feature", "properties": { "4chID": "YAVC", "interval": "15.0 sec", "name": "Yavi", "lat": -22.1245, "lon": -65.471, "earliest_d": "2014 Jul 02 17:45", "latest_dat": "2014 Dec 31 23:59", "grouping": "CAP Andes", "stnid": "YAVC" }, "geometry": { "type": "Point", "coordinates": [ -65.471, -22.1245 ] } },
{ "type": "Feature", "properties": { "4chID": "YARR", "interval": "30.0 sec", "name": "AU053", "lat": -29.0466, "lon": 115.347, "earliest_d": "2010 Sep 01 00:00", "latest_dat": "2018 Feb 26 23:59", "grouping": "IGS", "stnid": "YARR" }, "geometry": { "type": "Point", "coordinates": [ 115.347, -29.0466 ] } },
{ "type": "Feature", "properties": { "4chID": "YAR3", "interval": "30.0 sec", "name": "Yaragadee", "lat": -29.0465, "lon": 115.3471, "earliest_d": "2010 Sep 01 00:00", "latest_dat": "2018 Feb 26 23:59", "grouping": "IGS", "stnid": "YAR3" }, "geometry": { "type": "Point", "coordinates": [ 115.3471, -29.0465 ] } },
{ "type": "Feature", "properties": { "4chID": "YAR2", "interval": "30.0 sec", "name": "Yaragadee", "lat": -29.0466, "lon": 115.347, "earliest_d": "2010 Sep 01 00:00", "latest_dat": "2018 Feb 26 23:59", "grouping": "IGS", "stnid": "YAR2" }, "geometry": { "type": "Point", "coordinates": [ 115.347, -29.0466 ] } },
{ "type": "Feature", "properties": { "4chID": "YAR1", "interval": "30.0 sec", "name": "Yaragadee", "lat": -29.0466, "lon": 115.347, "earliest_d": "1992 Jan 01 11:06", "latest_dat": "2002 May 13 23:59", "grouping": "GGN", "stnid": "YAR1" }, "geometry": { "type": "Point", "coordinates": [ 115.347, -29.0466 ] } },
{ "type": "Feature", "properties": { "4chID": "YAOU", "interval": "15.0 sec", "name": "YAOUNDE", "lat": 3.8698, "lon": 11.4565, "earliest_d": "2010 Jun 10 22:03", "latest_dat": "2014 Dec 31 23:59", "grouping": "Met Sites, Africa Array", "stnid": "YAOU" }, "geometry": { "type": "Point", "coordinates": [ 11.4565, 3.8698 ] } },
{ "type": "Feature", "properties": { "4chID": "YANI", "interval": "15.0 sec", "name": "Caleta Yani", "lat": -37.3638, "lon": -73.6579, "earliest_d": "2010 Mar 18 19:01", "latest_dat": "2012 Jan 27 15:27", "grouping": "CAP Andes", "stnid": "YANI" }, "geometry": { "type": "Point", "coordinates": [ -73.6579, -37.3638 ] } },
{ "type": "Feature", "properties": { "4chID": "YAKT", "interval": "30.0 sec", "name": "Seismic Station Yakutsk", "lat": 62.031, "lon": 129.6803, "earliest_d": "2000 Jul 24 00:00", "latest_dat": "2018 Feb 26 23:59", "grouping": "IPY International Polar Year, GGN, IGS", "stnid": "YAKT" }, "geometry": { "type": "Point", "coordinates": [ 129.6803, 62.031 ] } },
{ "type": "Feature", "properties": { "4chID": "YAIG", "interval": "30.0 sec", "name": "Yautepec", "lat": 18.862, "lon": -99.0671, "earliest_d": "1999 Feb 18 00:00", "latest_dat": "2004 Mar 04 01:01", "grouping": "Guerrero Coast Mexico", "stnid": "YAIG" }, "geometry": { "type": "Point", "coordinates": [ -99.0671, 18.862 ] } },
{ "type": "Feature", "properties": { "4chID": "XYAK", "interval": "15.0 sec", "name": "Khopasi", "lat": 27.5568, "lon": 85.5373, "earliest_d": "2015 Jun 18 06:07", "latest_dat": "2017 Jul 18 23:59", "grouping": "Nepal", "stnid": "XYAK" }, "geometry": { "type": "Point", "coordinates": [ 85.5373, 27.5568 ] } },
{ "type": "Feature", "properties": { "4chID": "XTBT", "interval": "30.0 sec", "name": "Turkwel Turkana", "lat": 3.1393, "lon": 35.8669, "earliest_d": "2017 Feb 22 15:42", "latest_dat": "2017 Jul 11 04:35", "grouping": "Ethiopia", "stnid": "XTBT" }, "geometry": { "type": "Point", "coordinates": [ 35.8669, 3.1393 ] } },
{ "type": "Feature", "properties": { "4chID": "XMIS", "interval": "30.0 sec", "name": "Christmas Island", "lat": -10.45, "lon": 105.6885, "earliest_d": "2010 Sep 01 00:00", "latest_dat": "2018 Feb 26 23:59", "grouping": "IGS", "stnid": "XMIS" }, "geometry": { "type": "Point", "coordinates": [ 105.6885, -10.45 ] } },
{ "type": "Feature", "properties": { "4chID": "XIAN", "interval": "30.0 sec", "name": "Shaanxi Observatory", "lat": 34.3687, "lon": 109.2215, "earliest_d": "1996 May 18 09:03", "latest_dat": "2011 Nov 22 23:59", "grouping": "IGS", "stnid": "XIAN" }, "geometry": { "type": "Point", "coordinates": [ 109.2215, 34.3687 ] } },
{ "type": "Feature", "properties": { "4chID": "XBAR", "interval": "15.0 sec", "name": "Bahrabise", "lat": 27.7781, "lon": 85.8997, "earliest_d": "2015 Jun 21 06:25", "latest_dat": "2017 Jun 07 23:59", "grouping": "Nepal", "stnid": "XBAR" }, "geometry": { "type": "Point", "coordinates": [ 85.8997, 27.7781 ] } },
{ "type": "Feature", "properties": { "4chID": "WWMT", "interval": "15.0 sec", "name": "Whitewater Mountain", "lat": 33.9553, "lon": -116.6539, "earliest_d": "2001 Dec 19 23:13", "latest_dat": "2018 Feb 26 23:59", "grouping": "SCIGN USGS, PBO Analysis Complete", "stnid": "WWMT" }, "geometry": { "type": "Point", "coordinates": [ -116.6539, 33.9553 ] } },
{ "type": "Feature", "properties": { "4chID": "WWFG", "interval": "15.0 sec", "name": "Wister Waterfowl GPS", "lat": 33.2788, "lon": -115.5788, "earliest_d": "2014 Jun 20 21:29", "latest_dat": "2018 Feb 25 23:59", "grouping": "SCIGN USGS, PBO Analysis Complete", "stnid": "WWFG" }, "geometry": { "type": "Point", "coordinates": [ -115.5788, 33.2788 ] } },
{ "type": "Feature", "properties": { "4chID": "WVRT", "interval": "15.0 sec", "name": "WVRT", "lat": 39.9438, "lon": -119.826, "earliest_d": "2012 Jan 15 00:00", "latest_dat": "2017 Dec 18 23:59", "grouping": "MAGNET", "stnid": "WVRT" }, "geometry": { "type": "Point", "coordinates": [ -119.826, 39.9438 ] } },
{ "type": "Feature", "properties": { "4chID": "WUPA", "interval": "15.0 sec", "name": "WUPA", "lat": 35.5121, "lon": -111.3367, "earliest_d": "2011 Oct 29 00:00", "latest_dat": "2017 Mar 15 23:59", "grouping": "MAGNET, Colorado Plateau", "stnid": "WUPA" }, "geometry": { "type": "Point", "coordinates": [ -111.3367, 35.5121 ] } },
{ "type": "Feature", "properties": { "4chID": "WUHN", "interval": "30.0 sec", "name": "WUHAN", "lat": 30.5317, "lon": 114.3573, "earliest_d": "2010 Sep 01 00:00", "latest_dat": "2016 Sep 26 23:59", "grouping": "IGS", "stnid": "WUHN" }, "geometry": { "type": "Point", "coordinates": [ 114.3573, 30.5317 ] } },
{ "type": "Feature", "properties": { "4chID": "WUH2", "interval": "30.0 sec", "name": "WUHAN", "lat": 30.5316, "lon": 114.3573, "earliest_d": "2016 Sep 18 00:00", "latest_dat": "2018 Feb 26 16:59", "grouping": "IGS", "stnid": "WUH2" }, "geometry": { "type": "Point", "coordinates": [ 114.3573, 30.5316 ] } },
{ "type": "Feature", "properties": { "4chID": "WTZZ", "interval": "30.0 sec", "name": "Wettzell \/ Germany", "lat": 49.1442, "lon": 12.8789, "earliest_d": "2010 Sep 01 00:00", "latest_dat": "2018 Feb 26 23:59", "grouping": "IGS", "stnid": "WTZZ" }, "geometry": { "type": "Point", "coordinates": [ 12.8789, 49.1442 ] } },
{ "type": "Feature", "properties": { "4chID": "WTZS", "interval": "30.0 sec", "name": "Wettzell \/ Germany", "lat": 49.1448, "lon": 12.8786, "earliest_d": "2010 Sep 01 00:00", "latest_dat": "2018 Feb 26 23:59", "grouping": "IGS", "stnid": "WTZS" }, "geometry": { "type": "Point", "coordinates": [ 12.8786, 49.1448 ] } },
{ "type": "Feature", "properties": { "4chID": "WTZR", "interval": "30.0 sec", "name": "Wettzell \/ Germany", "lat": 49.1442, "lon": 12.8789, "earliest_d": "2010 Sep 01 00:00", "latest_dat": "2018 Feb 26 23:59", "grouping": "IGS", "stnid": "WTZR" }, "geometry": { "type": "Point", "coordinates": [ 12.8789, 49.1442 ] } },
{ "type": "Feature", "properties": { "4chID": "WTZA", "interval": "30.0 sec", "name": "Wettzell \/ Germany", "lat": 49.1442, "lon": 12.8789, "earliest_d": "2010 Sep 01 00:00", "latest_dat": "2018 Feb 26 23:59", "grouping": "IGS", "stnid": "WTZA" }, "geometry": { "type": "Point", "coordinates": [ 12.8789, 49.1442 ] } },
{ "type": "Feature", "properties": { "4chID": "WTYD", "interval": "30.0 sec", "name": "Whytes Yard", "lat": 16.7315, "lon": -62.1601, "earliest_d": "1996 Nov 18 22:10", "latest_dat": "1999 Oct 18 23:59", "grouping": "Montserrat", "stnid": "WTYD" }, "geometry": { "type": "Point", "coordinates": [ -62.1601, 16.7315 ] } },
{ "type": "Feature", "properties": { "4chID": "WTHG", "interval": "30.0 sec", "name": "Walterhausen Gletshcer", "lat": 73.9552, "lon": -24.3089, "earliest_d": "2009 Aug 13 14:33", "latest_dat": "2018 Feb 26 23:59", "grouping": "IPY International Polar Year, Greenland POLENET - GNET, Greenland", "stnid": "WTHG" }, "geometry": { "type": "Point", "coordinates": [ -24.3089, 73.9552 ] } },
{ "type": "Feature", "properties": { "4chID": "WSRT", "interval": "30.0 sec", "name": "Westerbork Synthesis Radio Telescope", "lat": 52.9146, "lon": 6.6045, "earliest_d": "2010 Sep 01 00:00", "latest_dat": "2018 Feb 26 23:59", "grouping": "IGS", "stnid": "WSRT" }, "geometry": { "type": "Point", "coordinates": [ 6.6045, 52.9146 ] } },
{ "type": "Feature", "properties": { "4chID": "WSLR", "interval": "30.0 sec", "name": "Whistler", "lat": 50.1265, "lon": -122.9212, "earliest_d": "2010 Sep 01 00:00", "latest_dat": "2016 Nov 16 00:02", "grouping": "PBO Expanded Analysis, IGS, PBO Analysis Complete", "stnid": "WSLR" }, "geometry": { "type": "Point", "coordinates": [ -122.9212, 50.1265 ] } },
{ "type": "Feature", "properties": { "4chID": "WROC", "interval": "30.0 sec", "name": "WROCLAW", "lat": 51.1133, "lon": 17.062, "earliest_d": "2010 Sep 01 00:00", "latest_dat": "2018 Feb 26 23:59", "grouping": "IGS", "stnid": "WROC" }, "geometry": { "type": "Point", "coordinates": [ 17.062, 51.1133 ] } },
{ "type": "Feature", "properties": { "4chID": "WRNR", "interval": "15.0 sec", "name": "WRNR", "lat": 41.5571, "lon": -120.4047, "earliest_d": "2006 Aug 10 00:00", "latest_dat": "2015 Nov 08 00:00", "grouping": "MAGNET", "stnid": "WRNR" }, "geometry": { "type": "Point", "coordinates": [ -120.4047, 41.5571 ] } },
{ "type": "Feature", "properties": { "4chID": "WRHS", "interval": "15.0 sec", "name": "Westchester High School", "lat": 33.9582, "lon": -118.4276, "earliest_d": "1999 Oct 08 17:03", "latest_dat": "2018 Feb 26 23:59", "grouping": "SCIGN USGS, PBO Analysis Complete", "stnid": "WRHS" }, "geometry": { "type": "Point", "coordinates": [ -118.4276, 33.9582 ] } },
{ "type": "Feature", "properties": { "4chID": "WPRG", "interval": "30.0 sec", "name": "White Pine Ridge", "lat": 44.6291, "lon": -112.7476, "earliest_d": "2011 Sep 18 21:08", "latest_dat": "2016 Aug 10 20:02", "grouping": "Southwest Montana", "stnid": "WPRG" }, "geometry": { "type": "Point", "coordinates": [ -112.7476, 44.6291 ] } },
{ "type": "Feature", "properties": { "4chID": "WORG", "interval": "15.0 sec", "name": "Onyx Ranch GPS", "lat": 35.6956, "lon": -118.2424, "earliest_d": "2015 Aug 11 00:00", "latest_dat": "2018 Feb 26 23:59", "grouping": "SCIGN USGS, PBO Analysis Complete", "stnid": "WORG" }, "geometry": { "type": "Point", "coordinates": [ -118.2424, 35.6956 ] } },
{ "type": "Feature", "properties": { "4chID": "WOND", "interval": "15.0 sec", "name": "WOND", "lat": 39.3808, "lon": -118.0807, "earliest_d": "2004 Mar 11 00:00", "latest_dat": "2016 Jan 28 00:00", "grouping": "MAGNET", "stnid": "WOND" }, "geometry": { "type": "Point", "coordinates": [ -118.0807, 39.3808 ] } },
{ "type": "Feature", "properties": { "4chID": "WOMT", "interval": "15.0 sec", "name": "WOMT_SCGN_CS1999", "lat": 34.669, "lon": -116.9317, "earliest_d": "1999 Sep 03 00:00", "latest_dat": "2018 Feb 27 23:59", "grouping": "Education and Outreach, Nucleus-SCIGN, Nucleus, PBO Core Network, PBO Analysis Complete", "stnid": "WOMT" }, "geometry": { "type": "Point", "coordinates": [ -116.9317, 34.669 ] } },
{ "type": "Feature", "properties": { "4chID": "WOLF", "interval": "15.0 sec", "name": "WOLF", "lat": 37.6083, "lon": -117.8829, "earliest_d": "2005 May 13 00:00", "latest_dat": "2017 Jul 10 21:09", "grouping": "MAGNET", "stnid": "WOLF" }, "geometry": { "type": "Point", "coordinates": [ -117.8829, 37.6083 ] } },
{ "type": "Feature", "properties": { "4chID": "WNRA", "interval": "15.0 sec", "name": "Whitter Narrows Recreation Area", "lat": 34.0432, "lon": -118.0593, "earliest_d": "2000 Aug 31 00:00", "latest_dat": "2018 Feb 26 23:59", "grouping": "SCIGN USGS, PBO Analysis Complete", "stnid": "WNRA" }, "geometry": { "type": "Point", "coordinates": [ -118.0593, 34.0432 ] } },
{ "type": "Feature", "properties": { "4chID": "WNFL", "interval": "30.0 sec", "name": "Winnfield", "lat": 31.8972, "lon": -92.7819, "earliest_d": "1997 May 23 21:37", "latest_dat": "2010 Aug 13 17:22", "grouping": "CORS, PBO Expanded Analysis, PBO Analysis Complete", "stnid": "WNFL" }, "geometry": { "type": "Point", "coordinates": [ -92.7819, 31.8972 ] } },
{ "type": "Feature", "properties": { "4chID": "WMOK", "interval": "15.0 sec", "name": "WichitaMtnOK2005", "lat": 34.7379, "lon": -98.7805, "earliest_d": "2005 Nov 03 00:00", "latest_dat": "2018 Feb 27 23:59", "grouping": "Education and Outreach, PBO, PBO Core Network, PBO Analysis Complete", "stnid": "WMOK" }, "geometry": { "type": "Point", "coordinates": [ -98.7805, 34.7379 ] } },
{ "type": "Feature", "properties": { "4chID": "WMDG", "interval": "15.0 sec", "name": "Westmoreland GPS", "lat": 33.0383, "lon": -115.5819, "earliest_d": "2014 Jul 01 16:00", "latest_dat": "2018 Feb 26 23:59", "grouping": "SCIGN USGS, PBO Analysis Complete", "stnid": "WMDG" }, "geometry": { "type": "Point", "coordinates": [ -115.5819, 33.0383 ] } },
{ "type": "Feature", "properties": { "4chID": "WMAP", "interval": "15.0 sec", "name": "Whiteman Airport", "lat": 34.2594, "lon": -118.4143, "earliest_d": "1998 Dec 29 20:08", "latest_dat": "2018 Feb 26 23:59", "grouping": "SCIGN USGS, PBO Analysis Complete", "stnid": "WMAP" }, "geometry": { "type": "Point", "coordinates": [ -118.4143, 34.2594 ] } },
{ "type": "Feature", "properties": { "4chID": "WLWY", "interval": "15.0 sec", "name": "WLWY_EBRY_WY1999", "lat": 44.6395, "lon": -110.2867, "earliest_d": "2001 Jul 01 10:00", "latest_dat": "2018 Feb 27 23:59", "grouping": "EBRY, Nucleus-EBRY, Nucleus, Education and Outreach, PBO Core Network, PBO Analysis Complete", "stnid": "WLWY" }, "geometry": { "type": "Point", "coordinates": [ -110.2867, 44.6395 ] } },
{ "type": "Feature", "properties": { "4chID": "WLSN", "interval": "15.0 sec", "name": "Mt. Wilson", "lat": 34.2261, "lon": -118.0559, "earliest_d": "1994 Jul 15 00:00", "latest_dat": "2018 Feb 26 23:59", "grouping": "SCIGN USGS, IGS, PBO Analysis Complete", "stnid": "WLSN" }, "geometry": { "type": "Point", "coordinates": [ -118.0559, 34.2261 ] } },
{ "type": "Feature", "properties": { "4chID": "WLNG", "interval": "15.0 sec", "name": "Walling", "lat": 27.9828, "lon": 83.7697, "earliest_d": "2016 Apr 07 02:57", "latest_dat": "2016 Aug 27 23:59", "grouping": "Nepal", "stnid": "WLNG" }, "geometry": { "type": "Point", "coordinates": [ 83.7697, 27.9828 ] } },
{ "type": "Feature", "properties": { "4chID": "WLLS", "interval": "15.0 sec", "name": "WLLS", "lat": 41.1669, "lon": -114.9754, "earliest_d": "2008 Apr 28 00:00", "latest_dat": "2009 Sep 28 23:59", "grouping": "MAGNET", "stnid": "WLLS" }, "geometry": { "type": "Point", "coordinates": [ -114.9754, 41.1669 ] } },
{ "type": "Feature", "properties": { "4chID": "WLHG", "interval": "15.0 sec", "name": "Little Horse 2 GPS", "lat": 36.1521, "lon": -118.3132, "earliest_d": "2015 Aug 11 20:10", "latest_dat": "2018 Feb 24 23:59", "grouping": "SCIGN USGS, PBO Analysis Complete", "stnid": "WLHG" }, "geometry": { "type": "Point", "coordinates": [ -118.3132, 36.1521 ] } },
{ "type": "Feature", "properties": { "4chID": "WLDC", "interval": "10.0 sec", "name": "Wildcat", "lat": 37.9008, "lon": -122.2202, "earliest_d": "2002 Apr 21 00:20", "latest_dat": "2008 Mar 06 19:11", "grouping": "Hayward Fault L1", "stnid": "WLDC" }, "geometry": { "type": "Point", "coordinates": [ -122.2202, 37.9008 ] } },
{ "type": "Feature", "properties": { "4chID": "WKPK", "interval": "15.0 sec", "name": "WKPK_SCGN_CS1999", "lat": 34.5685, "lon": -118.7415, "earliest_d": "1999 Oct 07 00:00", "latest_dat": "2018 Feb 27 23:59", "grouping": "Nucleus-SCIGN, Nucleus, PBO Core Network, PBO Analysis Complete", "stnid": "WKPK" }, "geometry": { "type": "Point", "coordinates": [ -118.7415, 34.5685 ] } },
{ "type": "Feature", "properties": { "4chID": "WINV", "interval": "15.0 sec", "name": "WINV", "lat": 39.9625, "lon": -119.824, "earliest_d": "2004 Mar 18 00:00", "latest_dat": "2011 Nov 10 00:00", "grouping": "MAGNET", "stnid": "WINV" }, "geometry": { "type": "Point", "coordinates": [ -119.824, 39.9625 ] } },
{ "type": "Feature", "properties": { "4chID": "WINT", "interval": "15.0 sec", "name": "WINT_BARD_CN1991", "lat": 37.6526, "lon": -122.1406, "earliest_d": "1992 Jan 01 00:00", "latest_dat": "2018 Feb 27 23:59", "grouping": "PBO Affiliated Sites, Nucleus-BARD, Nucleus, PBO Analysis Complete", "stnid": "WINT" }, "geometry": { "type": "Point", "coordinates": [ -122.1406, 37.6526 ] } },
{ "type": "Feature", "properties": { "4chID": "WIND", "interval": "30.0 sec", "name": "Windhoek", "lat": -22.5749, "lon": 17.0894, "earliest_d": "2010 Sep 01 00:00", "latest_dat": "2018 Feb 26 23:59", "grouping": "IGS", "stnid": "WIND" }, "geometry": { "type": "Point", "coordinates": [ 17.0894, -22.5749 ] } },
{ "type": "Feature", "properties": { "4chID": "WIN2", "interval": "15.0 sec", "name": "WIN2_BARD_CN2008", "lat": 37.6526, "lon": -122.1406, "earliest_d": "2008 Jul 16 23:19", "latest_dat": "2018 Feb 27 23:59", "grouping": "Nucleus-BARD, Nucleus, PBO Core Network, PBO Analysis Complete", "stnid": "WIN2" }, "geometry": { "type": "Point", "coordinates": [ -122.1406, 37.6526 ] } },
{ "type": "Feature", "properties": { "4chID": "WILL", "interval": "30.0 sec", "name": "Williams Lake", "lat": 52.2369, "lon": -122.1678, "earliest_d": "1993 Oct 06 19:03", "latest_dat": "2018 Feb 27 23:59", "grouping": "Western Canada Deformation Array, Education and Outreach, PBO Expanded Analysis, IGS, PBO Analysis Complete", "stnid": "WILL" }, "geometry": { "type": "Point", "coordinates": [ -122.1678, 52.2369 ] } },
{ "type": "Feature", "properties": { "4chID": "WILD", "interval": "15.0 sec", "name": "WILD", "lat": 40.0246, "lon": -118.4676, "earliest_d": "2004 Jan 30 00:00", "latest_dat": "2013 Jan 28 00:00", "grouping": "MAGNET", "stnid": "WILD" }, "geometry": { "type": "Point", "coordinates": [ -118.4676, 40.0246 ] } },
{ "type": "Feature", "properties": { "4chID": "WILC", "interval": "15.0 sec", "name": "WILC", "lat": 40.5581, "lon": -117.8777, "earliest_d": "2004 Oct 07 00:00", "latest_dat": "2015 Sep 25 00:00", "grouping": "MAGNET", "stnid": "WILC" }, "geometry": { "type": "Point", "coordinates": [ -117.8777, 40.5581 ] } },
{ "type": "Feature", "properties": { "4chID": "WIKR", "interval": "15.0 sec", "name": "Wicker84K_AK2008", "lat": 63.5527, "lon": -150.9222, "earliest_d": "2008 Aug 21 00:00", "latest_dat": "2018 Feb 27 23:59", "grouping": "PBO, PBO Core Network, PBO Analysis Complete", "stnid": "WIKR" }, "geometry": { "type": "Point", "coordinates": [ -150.9222, 63.5527 ] } },
{ "type": "Feature", "properties": { "4chID": "WIFR", "interval": "15.0 sec", "name": "Wife Reset", "lat": 44.0597, "lon": -121.8176, "earliest_d": "2008 Oct 29 00:00", "latest_dat": "2018 Feb 26 23:59", "grouping": "USGS Pacific Northwest", "stnid": "WIFR" }, "geometry": { "type": "Point", "coordinates": [ -121.8176, 44.0597 ] } },
{ "type": "Feature", "properties": { "4chID": "WIFC", "interval": "30.0 sec", "name": "Wife", "lat": 44.0596, "lon": -121.8176, "earliest_d": "2004 Aug 17 00:00", "latest_dat": "2008 Feb 24 23:40", "grouping": "USGS Pacific Northwest", "stnid": "WIFC" }, "geometry": { "type": "Point", "coordinates": [ -121.8176, 44.0596 ] } },
{ "type": "Feature", "properties": { "4chID": "WIDC", "interval": "15.0 sec", "name": "Wide Canyon", "lat": 33.9348, "lon": -116.3918, "earliest_d": "1997 Sep 30 00:44", "latest_dat": "2018 Feb 26 23:59", "grouping": "SCIGN USGS, IGS, PBO Analysis Complete", "stnid": "WIDC" }, "geometry": { "type": "Point", "coordinates": [ -116.3918, 33.9348 ] } },
{ "type": "Feature", "properties": { "4chID": "WHTA", "interval": "15.0 sec", "name": "WHTA", "lat": 33.611, "lon": -112.5137, "earliest_d": "2010 Aug 17 00:00", "latest_dat": "2017 Mar 13 23:59", "grouping": "Colorado Plateau", "stnid": "WHTA" }, "geometry": { "type": "Point", "coordinates": [ -112.5137, 33.611 ] } },
{ "type": "Feature", "properties": { "4chID": "WHIT", "interval": "30.0 sec", "name": "WHIT CACS-GSD", "lat": 60.7505, "lon": -135.2221, "earliest_d": "2010 Sep 01 00:00", "latest_dat": "2018 Feb 26 23:59", "grouping": "PBO Expanded Analysis, IGS, PBO Analysis Complete", "stnid": "WHIT" }, "geometry": { "type": "Point", "coordinates": [ -135.2221, 60.7505 ] } },
{ "type": "Feature", "properties": { "4chID": "WHFG", "interval": "15.0 sec", "name": "Hanning Flat GPS", "lat": 35.695, "lon": -118.352, "earliest_d": "2015 Aug 10 23:04", "latest_dat": "2018 Feb 26 23:59", "grouping": "SCIGN USGS, PBO Analysis Complete", "stnid": "WHFG" }, "geometry": { "type": "Point", "coordinates": [ -118.352, 35.695 ] } },
{ "type": "Feature", "properties": { "4chID": "WHCR", "interval": "15.0 sec", "name": "Woodlands High School", "lat": 30.1943, "lon": -95.5054, "earliest_d": "2014 Oct 10 21:34", "latest_dat": "2018 Feb 27 23:59", "grouping": "HoustonNet, Met Sites", "stnid": "WHCR" }, "geometry": { "type": "Point", "coordinates": [ -95.5054, 30.1943 ] } },
{ "type": "Feature", "properties": { "4chID": "WHC1", "interval": "15.0 sec", "name": "Whittier College", "lat": 33.9799, "lon": -118.0312, "earliest_d": "1995 Mar 16 01:38", "latest_dat": "2018 Feb 26 23:59", "grouping": "SCIGN USGS, IGS, PBO Analysis Complete", "stnid": "WHC1" }, "geometry": { "type": "Point", "coordinates": [ -118.0312, 33.9799 ] } },
{ "type": "Feature", "properties": { "4chID": "WHBR", "interval": "15.0 sec", "name": "WHBR", "lat": 44.1632, "lon": -121.9786, "earliest_d": "2009 Jul 17 19:55", "latest_dat": "2016 Aug 31 20:56", "grouping": "USGS Semi-Continuous", "stnid": "WHBR" }, "geometry": { "type": "Point", "coordinates": [ -121.9786, 44.1632 ] } },
{ "type": "Feature", "properties": { "4chID": "WGTN", "interval": "30.0 sec", "name": "Wellington Airport", "lat": -41.3235, "lon": 174.8059, "earliest_d": "2010 Sep 01 00:00", "latest_dat": "2018 Feb 26 23:59", "grouping": "IGS", "stnid": "WGTN" }, "geometry": { "type": "Point", "coordinates": [ 174.8059, -41.3235 ] } },
{ "type": "Feature", "properties": { "4chID": "WGPP", "interval": "15.0 sec", "name": "WGPP_SCGN_CS1999", "lat": 35.0108, "lon": -118.9837, "earliest_d": "1999 Nov 11 00:02", "latest_dat": "2018 Feb 27 23:59", "grouping": "Nucleus-SCIGN, Nucleus, PBO Core Network, PBO Analysis Complete", "stnid": "WGPP" }, "geometry": { "type": "Point", "coordinates": [ -118.9837, 35.0108 ] } },
{ "type": "Feature", "properties": { "4chID": "WES2", "interval": "30.0 sec", "name": "WESTFORD", "lat": 42.6133, "lon": -71.4933, "earliest_d": "1994 Oct 26 00:00", "latest_dat": "2018 Feb 26 23:59", "grouping": "CORS, PBO Expanded Analysis, IGS, PBO Analysis Complete", "stnid": "WES2" }, "geometry": { "type": "Point", "coordinates": [ -71.4933, 42.6133 ] } },
{ "type": "Feature", "properties": { "4chID": "WEPD", "interval": "15.0 sec", "name": "willmselementary", "lat": 29.6877, "lon": -95.2287, "earliest_d": "2014 Jan 27 00:00", "latest_dat": "2018 Feb 27 23:59", "grouping": "HoustonNet", "stnid": "WEPD" }, "geometry": { "type": "Point", "coordinates": [ -95.2287, 29.6877 ] } },
{ "type": "Feature", "properties": { "4chID": "WELD", "interval": "15.0 sec", "name": "WELD", "lat": 35.6191, "lon": -118.2287, "earliest_d": "2005 Aug 05 00:19", "latest_dat": "2009 Nov 11 00:00", "grouping": "MAGNET", "stnid": "WELD" }, "geometry": { "type": "Point", "coordinates": [ -118.2287, 35.6191 ] } },
{ "type": "Feature", "properties": { "4chID": "WEL2", "interval": "30.0 sec", "name": "New Zealand NGA colocated", "lat": -41.2726, "lon": 174.7787, "earliest_d": "Pending", "latest_dat": "Pending", "grouping": "IGS", "stnid": "WEL2" }, "geometry": { "type": "Point", "coordinates": [ 174.7787, -41.2726 ] } },
{ "type": "Feature", "properties": { "4chID": "WEL1", "interval": "30.0 sec", "name": "New Zealand NGA colocated", "lat": -41.2726, "lon": 174.7787, "earliest_d": "Pending", "latest_dat": "Pending", "grouping": "IGS", "stnid": "WEL1" }, "geometry": { "type": "Point", "coordinates": [ 174.7787, -41.2726 ] } },
{ "type": "Feature", "properties": { "4chID": "WEEP", "interval": "15.0 sec", "name": "WEEP", "lat": 37.85, "lon": -117.5689, "earliest_d": "2005 May 14 00:00", "latest_dat": "2016 Jun 21 19:23", "grouping": "MAGNET", "stnid": "WEEP" }, "geometry": { "type": "Point", "coordinates": [ -117.5689, 37.85 ] } },
{ "type": "Feature", "properties": { "4chID": "WDVW", "interval": "15.0 sec", "name": "WDVW", "lat": 29.79, "lon": -95.533, "earliest_d": "2013 Apr 25 22:17", "latest_dat": "2018 Feb 27 23:59", "grouping": "HoustonNet", "stnid": "WDVW" }, "geometry": { "type": "Point", "coordinates": [ -95.533, 29.79 ] } },
{ "type": "Feature", "properties": { "4chID": "WDC6", "interval": "30.0 sec", "name": "USNO NGA colocated", "lat": 38.9206, "lon": -77.0663, "earliest_d": "2015 Nov 29 00:00", "latest_dat": "2018 Feb 27 00:00", "grouping": "IGS", "stnid": "WDC6" }, "geometry": { "type": "Point", "coordinates": [ -77.0663, 38.9206 ] } },
{ "type": "Feature", "properties": { "4chID": "WDC5", "interval": "30.0 sec", "name": "USNO NGA colocated", "lat": 38.9206, "lon": -77.0663, "earliest_d": "2015 Nov 29 00:00", "latest_dat": "2018 Feb 27 00:00", "grouping": "IGS", "stnid": "WDC5" }, "geometry": { "type": "Point", "coordinates": [ -77.0663, 38.9206 ] } },
{ "type": "Feature", "properties": { "4chID": "WDC4", "interval": "30.0 sec", "name": "USNO NGA colocated", "lat": 38.9206, "lon": -77.0663, "earliest_d": "Pending", "latest_dat": "Pending", "grouping": "IGS", "stnid": "WDC4" }, "geometry": { "type": "Point", "coordinates": [ -77.0663, 38.9206 ] } },
{ "type": "Feature", "properties": { "4chID": "WDC3", "interval": "30.0 sec", "name": "USNO NGA colocated", "lat": 38.9206, "lon": -77.0663, "earliest_d": "Pending", "latest_dat": "Pending", "grouping": "IGS", "stnid": "WDC3" }, "geometry": { "type": "Point", "coordinates": [ -77.0663, 38.9206 ] } },
{ "type": "Feature", "properties": { "4chID": "WCHT", "interval": "15.0 sec", "name": "WCHT", "lat": 29.7828, "lon": -95.5814, "earliest_d": "2013 Apr 17 16:32", "latest_dat": "2018 Feb 27 23:59", "grouping": "HoustonNet", "stnid": "WCHT" }, "geometry": { "type": "Point", "coordinates": [ -95.5814, 29.7828 ] } },
{ "type": "Feature", "properties": { "4chID": "WCHS", "interval": "15.0 sec", "name": "West Covina High School", "lat": 34.0619, "lon": -117.9111, "earliest_d": "1999 Jan 22 21:28", "latest_dat": "2018 Feb 26 23:59", "grouping": "SCIGN USGS, PBO Analysis Complete", "stnid": "WCHS" }, "geometry": { "type": "Point", "coordinates": [ -117.9111, 34.0619 ] } },
{ "type": "Feature", "properties": { "4chID": "WBRN", "interval": "15.0 sec", "name": "WBRN", "lat": 44.801, "lon": -110.4373, "earliest_d": "2009 Aug 07 18:04", "latest_dat": "2016 Aug 21 23:59", "grouping": "USGS Semi-Continuous", "stnid": "WBRN" }, "geometry": { "type": "Point", "coordinates": [ -110.4373, 44.801 ] } },
{ "type": "Feature", "properties": { "4chID": "WATC", "interval": "15.0 sec", "name": "Waterson", "lat": 37.6643, "lon": -118.6539, "earliest_d": "2001 Sep 21 00:00", "latest_dat": "2018 Feb 26 23:59", "grouping": "USGS Mammoth, PBO Expanded Analysis, PBO Analysis Complete", "stnid": "WATC" }, "geometry": { "type": "Point", "coordinates": [ -118.6539, 37.6643 ] } },
{ "type": "Feature", "properties": { "4chID": "WAT1", "interval": "30.0 sec", "name": "Watana 1", "lat": 62.8295, "lon": -148.551, "earliest_d": "2013 Aug 02 00:00", "latest_dat": "2018 Feb 27 23:59", "grouping": "Susitna-Watana", "stnid": "WAT1" }, "geometry": { "type": "Point", "coordinates": [ -148.551, 62.8295 ] } },
{ "type": "Feature", "properties": { "4chID": "WASU", "interval": "15.0 sec", "name": "WASU", "lat": 39.0364, "lon": -118.9701, "earliest_d": "2006 Oct 27 00:00", "latest_dat": "2017 Jan 07 02:23", "grouping": "MAGNET", "stnid": "WASU" }, "geometry": { "type": "Point", "coordinates": [ -118.9701, 39.0364 ] } },
{ "type": "Feature", "properties": { "4chID": "WASS", "interval": "15.0 sec", "name": "WASS", "lat": 38.7297, "lon": -118.8944, "earliest_d": "2005 Oct 20 00:00", "latest_dat": "2017 Feb 16 00:00", "grouping": "MAGNET", "stnid": "WASS" }, "geometry": { "type": "Point", "coordinates": [ -118.8944, 38.7297 ] } },
{ "type": "Feature", "properties": { "4chID": "WASG", "interval": "15.0 sec", "name": "Alta Sierra GPS", "lat": 35.7384, "lon": -118.557, "earliest_d": "2015 Jul 15 22:05", "latest_dat": "2018 Feb 26 23:59", "grouping": "SCIGN USGS, PBO Analysis Complete", "stnid": "WASG" }, "geometry": { "type": "Point", "coordinates": [ -118.557, 35.7384 ] } },
{ "type": "Feature", "properties": { "4chID": "WARN", "interval": "30.0 sec", "name": "Warnemuende", "lat": 54.1698, "lon": 12.1014, "earliest_d": "2010 Sep 01 00:00", "latest_dat": "2018 Feb 26 23:59", "grouping": "IGS", "stnid": "WARN" }, "geometry": { "type": "Point", "coordinates": [ 12.1014, 54.1698 ] } },
{ "type": "Feature", "properties": { "4chID": "WARK", "interval": "30.0 sec", "name": "Warkworth GPS", "lat": -36.4344, "lon": 174.6627, "earliest_d": "2013 Jun 01 00:00", "latest_dat": "2018 Feb 26 23:59", "grouping": "IGS", "stnid": "WARK" }, "geometry": { "type": "Point", "coordinates": [ 174.6627, -36.4344 ] } },
{ "type": "Feature", "properties": { "4chID": "WARD", "interval": "15.0 sec", "name": "WARD", "lat": 39.1484, "lon": -120.2431, "earliest_d": "2005 Aug 10 00:00", "latest_dat": "2017 Feb 08 18:05", "grouping": "MAGNET", "stnid": "WARD" }, "geometry": { "type": "Point", "coordinates": [ -120.2431, 39.1484 ] } },
{ "type": "Feature", "properties": { "4chID": "WAOR", "interval": "15.0 sec", "name": "Wao Pele Reset", "lat": 19.4192, "lon": -155.0912, "earliest_d": "2008 Jul 25 20:10", "latest_dat": "2014 Dec 16 20:59", "grouping": "Hawaii USGS HVO", "stnid": "WAOR" }, "geometry": { "type": "Point", "coordinates": [ -155.0912, 19.4192 ] } },
{ "type": "Feature", "properties": { "4chID": "WAOP", "interval": "30.0 sec", "name": "Waokele", "lat": 19.4221, "lon": -155.0811, "earliest_d": "1999 Dec 18 00:00", "latest_dat": "2007 Aug 24 21:59", "grouping": "Hawaii USGS HVO", "stnid": "WAOP" }, "geometry": { "type": "Point", "coordinates": [ -155.0811, 19.4221 ] } },
{ "type": "Feature", "properties": { "4chID": "WALL", "interval": "15.0 sec", "name": "WALL", "lat": 41.2485, "lon": -119.7188, "earliest_d": "2006 Aug 11 00:00", "latest_dat": "2015 Feb 05 00:00", "grouping": "MAGNET", "stnid": "WALL" }, "geometry": { "type": "Point", "coordinates": [ -119.7188, 41.2485 ] } },
{ "type": "Feature", "properties": { "4chID": "WALK", "interval": "15.0 sec", "name": "WALK", "lat": 38.7587, "lon": -118.764, "earliest_d": "2005 Oct 21 00:00", "latest_dat": "2017 Jul 21 00:00", "grouping": "MAGNET", "stnid": "WALK" }, "geometry": { "type": "Point", "coordinates": [ -118.764, 38.7587 ] } },
{ "type": "Feature", "properties": { "4chID": "WAKA", "interval": "30.0 sec", "name": "Waka Mara", "lat": -43.584, "lon": 169.8853, "earliest_d": "2000 Nov 02 00:01", "latest_dat": "2018 Feb 26 23:59", "grouping": "SAGE New Zealand", "stnid": "WAKA" }, "geometry": { "type": "Point", "coordinates": [ 169.8853, -43.584 ] } },
{ "type": "Feature", "properties": { "4chID": "WAHW", "interval": "15.0 sec", "name": "WAHW", "lat": 38.6457, "lon": -113.4131, "earliest_d": "2010 Oct 23 00:00", "latest_dat": "2014 Oct 08 00:00", "grouping": "MAGNET", "stnid": "WAHW" }, "geometry": { "type": "Point", "coordinates": [ -113.4131, 38.6457 ] } },
{ "type": "Feature", "properties": { "4chID": "WAGO", "interval": "15.0 sec", "name": "WAGO", "lat": 41.2916, "lon": -119.514, "earliest_d": "2011 Aug 25 00:00", "latest_dat": "2015 Feb 05 00:00", "grouping": "MAGNET", "stnid": "WAGO" }, "geometry": { "type": "Point", "coordinates": [ -119.514, 41.2916 ] } },
{ "type": "Feature", "properties": { "4chID": "WABU", "interval": "15.0 sec", "name": "WABU", "lat": 39.1578, "lon": -119.2593, "earliest_d": "2006 Oct 27 00:00", "latest_dat": "2016 Dec 29 00:00", "grouping": "MAGNET", "stnid": "WABU" }, "geometry": { "type": "Point", "coordinates": [ -119.2593, 39.1578 ] } },
{ "type": "Feature", "properties": { "4chID": "WAB2", "interval": "30.0 sec", "name": "Wabern", "lat": 46.9238, "lon": 7.4643, "earliest_d": "2010 Sep 01 00:00", "latest_dat": "2018 Feb 26 23:59", "grouping": "IGS", "stnid": "WAB2" }, "geometry": { "type": "Point", "coordinates": [ 7.4643, 46.9238 ] } },
{ "type": "Feature", "properties": { "4chID": "VZCY", "interval": "15.0 sec", "name": "Vizcaya permanent station - Tungurahua Volcano", "lat": -1.3638, "lon": -78.4124, "earliest_d": "2012 Sep 21 00:00", "latest_dat": "2018 Feb 25 23:59", "grouping": "Ecuador-IGEPN", "stnid": "VZCY" }, "geometry": { "type": "Point", "coordinates": [ -78.4124, -1.3638 ] } },
{ "type": "Feature", "properties": { "4chID": "VYAS", "interval": "30.0 sec", "name": "Valley Alternative School", "lat": 34.03, "lon": -117.99, "earliest_d": "1998 Jul 28 23:03", "latest_dat": "2010 Nov 20 03:59", "grouping": "SCIGN USGS, PBO Analysis Complete", "stnid": "VYAS" }, "geometry": { "type": "Point", "coordinates": [ -117.99, 34.03 ] } },
{ "type": "Feature", "properties": { "4chID": "VWZM", "interval": "15.0 sec", "name": "Vwaza Marsh", "lat": -11.1753, "lon": 33.5744, "earliest_d": "2012 Jul 14 11:25", "latest_dat": "2016 Oct 23 03:57", "grouping": "Malawi Rifting", "stnid": "VWZM" }, "geometry": { "type": "Point", "coordinates": [ 33.5744, -11.1753 ] } },
{ "type": "Feature", "properties": { "4chID": "VTOR", "interval": "15.0 sec", "name": "Vista_TwinCA2012", "lat": 33.225, "lon": -117.1932, "earliest_d": "2012 Jun 15 18:59", "latest_dat": "2018 Feb 27 23:59", "grouping": "PBO Analysis Complete, Met Sites, Geopentech", "stnid": "VTOR" }, "geometry": { "type": "Point", "coordinates": [ -117.1932, 33.225 ] } },
{ "type": "Feature", "properties": { "4chID": "VTIS", "interval": "15.0 sec", "name": "Marine Exchange", "lat": 33.7126, "lon": -118.2938, "earliest_d": "1998 Dec 09 00:00", "latest_dat": "2018 Feb 26 23:59", "grouping": "SCIGN USGS, PBO Analysis Complete", "stnid": "VTIS" }, "geometry": { "type": "Point", "coordinates": [ -118.2938, 33.7126 ] } },
{ "type": "Feature", "properties": { "4chID": "VRDE", "interval": "15.0 sec", "name": "VRDE", "lat": 39.5244, "lon": -119.962, "earliest_d": "2008 Apr 23 00:00", "latest_dat": "2013 May 23 00:00", "grouping": "MAGNET", "stnid": "VRDE" }, "geometry": { "type": "Point", "coordinates": [ -119.962, 39.5244 ] } },
{ "type": "Feature", "properties": { "4chID": "VRAI", "interval": "15.0 sec", "name": "Veragua__CRI2012", "lat": 9.9249, "lon": -83.1906, "earliest_d": "2012 Oct 19 17:52", "latest_dat": "2018 Feb 27 23:59", "grouping": "PBO Analysis Complete, COCONet, Met Sites, Low Latency, COCONetCore", "stnid": "VRAI" }, "geometry": { "type": "Point", "coordinates": [ -83.1906, 9.9249 ] } },
{ "type": "Feature", "properties": { "4chID": "VPOL", "interval": "15.0 sec", "name": "PoloNuevoCOL2011", "lat": 10.7938, "lon": -74.8608, "earliest_d": "2015 Jan 01 00:00", "latest_dat": "2018 Feb 25 23:59", "grouping": "PBO Analysis Complete, COCONet, GeoRED, COCONetPartner", "stnid": "VPOL" }, "geometry": { "type": "Point", "coordinates": [ -74.8608, 10.7938 ] } },
{ "type": "Feature", "properties": { "4chID": "VOZN", "interval": "30.0 sec", "name": "Voznesenka", "lat": 59.8084, "lon": -151.1252, "earliest_d": "2011 Oct 18 00:41", "latest_dat": "2017 Aug 31 02:56", "grouping": "Alaska", "stnid": "VOZN" }, "geometry": { "type": "Point", "coordinates": [ -151.1252, 59.8084 ] } },
{ "type": "Feature", "properties": { "4chID": "VORA", "interval": "15.0 sec", "name": "Apartado_COL2010", "lat": 7.8184, "lon": -76.7218, "earliest_d": "2015 Jan 01 00:00", "latest_dat": "2017 Aug 03 23:59", "grouping": "PBO Analysis Complete, COCONet, GeoRED, COCONetPartner", "stnid": "VORA" }, "geometry": { "type": "Point", "coordinates": [ -76.7218, 7.8184 ] } },
{ "type": "Feature", "properties": { "4chID": "VONS", "interval": "15.0 sec", "name": "Von Schmidt Line", "lat": 36.5939, "lon": -116.6227, "earliest_d": "2005 Sep 15 02:42", "latest_dat": "2010 Aug 26 23:59", "grouping": "Basin and Range BARGEN", "stnid": "VONS" }, "geometry": { "type": "Point", "coordinates": [ -116.6227, 36.5939 ] } },
{ "type": "Feature", "properties": { "4chID": "VOLM", "interval": "10.0 sec", "name": "Volmer Ridge", "lat": 37.8912, "lon": -122.2262, "earliest_d": "2002 Apr 21 00:22", "latest_dat": "2008 Feb 29 19:38", "grouping": "Hayward Fault L1", "stnid": "VOLM" }, "geometry": { "type": "Point", "coordinates": [ -122.2262, 37.8912 ] } },
{ "type": "Feature", "properties": { "4chID": "VOIM", "interval": "30.0 sec", "name": "Ambalavao", "lat": -21.9063, "lon": 46.7933, "earliest_d": "2016 Sep 26 00:00", "latest_dat": "2018 Feb 26 23:59", "grouping": "IGS", "stnid": "VOIM" }, "geometry": { "type": "Point", "coordinates": [ 46.7933, -21.9063 ] } },
{ "type": "Feature", "properties": { "4chID": "VOIL", "interval": "30.0 sec", "name": "Voila", "lat": 18.5287, "lon": -72.3086, "earliest_d": "2010 Feb 24 19:28", "latest_dat": "2014 Nov 05 19:56", "grouping": "PBO Analysis Complete, Haiti, COCONet, COCONetPartner", "stnid": "VOIL" }, "geometry": { "type": "Point", "coordinates": [ -72.3086, 18.5287 ] } },
{ "type": "Feature", "properties": { "4chID": "VNPS", "interval": "15.0 sec", "name": "Vincent Pump Station", "lat": 34.5015, "lon": -118.1212, "earliest_d": "1999 Oct 06 16:51", "latest_dat": "2018 Feb 26 23:59", "grouping": "SCIGN USGS, PBO Analysis Complete", "stnid": "VNPS" }, "geometry": { "type": "Point", "coordinates": [ -118.1212, 34.5015 ] } },
{ "type": "Feature", "properties": { "4chID": "VNDP", "interval": "15.0 sec", "name": "VNDP_SCGN_CS1992", "lat": 34.5563, "lon": -120.6164, "earliest_d": "1995 Jan 01 00:00", "latest_dat": "2018 Feb 27 23:59", "grouping": "Nucleus-SCIGN, Nucleus, IGS, Met Sites, PBO Core Network, PBO Analysis Complete", "stnid": "VNDP" }, "geometry": { "type": "Point", "coordinates": [ -120.6164, 34.5563 ] } },
{ "type": "Feature", "properties": { "4chID": "VNCX", "interval": "15.0 sec", "name": "VNCX_SCGN_CS1998", "lat": 34.2932, "lon": -118.4845, "earliest_d": "1998 Dec 30 00:00", "latest_dat": "2018 Feb 27 23:59", "grouping": "Nucleus-SCIGN, Nucleus, PBO Core Network, PBO Analysis Complete", "stnid": "VNCX" }, "geometry": { "type": "Point", "coordinates": [ -118.4845, 34.2932 ] } },
{ "type": "Feature", "properties": { "4chID": "VNCO", "interval": "15.0 sec", "name": "VNCO_SCGN_CS2000", "lat": 34.2758, "lon": -119.2377, "earliest_d": "2000 Nov 20 05:54", "latest_dat": "2018 Feb 27 23:59", "grouping": "Nucleus-SCIGN, Nucleus, PBO Core Network, PBO Analysis Complete", "stnid": "VNCO" }, "geometry": { "type": "Point", "coordinates": [ -119.2377, 34.2758 ] } },
{ "type": "Feature", "properties": { "4chID": "VMIG", "interval": "30.0 sec", "name": "Volcan San Miguel", "lat": 13.3962, "lon": -88.3046, "earliest_d": "2007 Jun 27 16:48", "latest_dat": "2018 Jan 02 23:59", "grouping": "El Salvador", "stnid": "VMIG" }, "geometry": { "type": "Point", "coordinates": [ -88.3046, 13.3962 ] } },
{ "type": "Feature", "properties": { "4chID": "VMAG", "interval": "15.0 sec", "name": "Magangue", "lat": 9.287, "lon": -74.847, "earliest_d": "2012 May 01 00:00", "latest_dat": "2018 Feb 25 23:59", "grouping": "PBO Analysis Complete, COCONet, GeoRED, COCONetPartner", "stnid": "VMAG" }, "geometry": { "type": "Point", "coordinates": [ -74.847, 9.287 ] } },
{ "type": "Feature", "properties": { "4chID": "VLZL", "interval": "15.0 sec", "name": "Valenzuela", "lat": -23.1172, "lon": -69.9647, "earliest_d": "2006 Sep 26 23:14", "latest_dat": "2014 Dec 18 23:59", "grouping": "Andes", "stnid": "VLZL" }, "geometry": { "type": "Point", "coordinates": [ -69.9647, -23.1172 ] } },
{ "type": "Feature", "properties": { "4chID": "VLMY", "interval": "15.0 sec", "name": "VLMY", "lat": 40.7113, "lon": -117.2888, "earliest_d": "2011 Jun 29 00:00", "latest_dat": "2015 Apr 16 00:00", "grouping": "MAGNET", "stnid": "VLMY" }, "geometry": { "type": "Point", "coordinates": [ -117.2888, 40.7113 ] } },
{ "type": "Feature", "properties": { "4chID": "VLCN", "interval": "15.0 sec", "name": "Volcan", "lat": 8.7851, "lon": -82.6388, "earliest_d": "2011 May 18 00:00", "latest_dat": "2017 Jul 25 23:59", "grouping": "Panama", "stnid": "VLCN" }, "geometry": { "type": "Point", "coordinates": [ -82.6388, 8.7851 ] } },
{ "type": "Feature", "properties": { "4chID": "VITH", "interval": "30.0 sec", "name": "St. Thomas", "lat": 18.3433, "lon": -64.9692, "earliest_d": "2006 Aug 18 00:00", "latest_dat": "2018 Feb 26 23:59", "grouping": "CORS, PBO Analysis Complete, COCONet, Low Latency, COCONetPartner", "stnid": "VITH" }, "geometry": { "type": "Point", "coordinates": [ -64.9692, 18.3433 ] } },
{ "type": "Feature", "properties": { "4chID": "VIS0", "interval": "30.0 sec", "name": "Visby", "lat": 57.6539, "lon": 18.3673, "earliest_d": "2010 Sep 01 00:00", "latest_dat": "2018 Feb 26 23:59", "grouping": "IGS", "stnid": "VIS0" }, "geometry": { "type": "Point", "coordinates": [ 18.3673, 57.6539 ] } },
{ "type": "Feature", "properties": { "4chID": "VIRP", "interval": "15.0 sec", "name": "VIRP", "lat": 39.7307, "lon": -119.4926, "earliest_d": "2004 Mar 18 00:00", "latest_dat": "2015 Sep 15 20:05", "grouping": "MAGNET", "stnid": "VIRP" }, "geometry": { "type": "Point", "coordinates": [ -119.4926, 39.7307 ] } },
{ "type": "Feature", "properties": { "4chID": "VIRC", "interval": "15.0 sec", "name": "VIRC", "lat": 39.3459, "lon": -119.6369, "earliest_d": "2004 Mar 17 00:00", "latest_dat": "2016 Nov 21 00:00", "grouping": "MAGNET", "stnid": "VIRC" }, "geometry": { "type": "Point", "coordinates": [ -119.6369, 39.3459 ] } },
{ "type": "Feature", "properties": { "4chID": "VINE", "interval": "15.0 sec", "name": "Grapevine Canyon", "lat": 36.9953, "lon": -117.3634, "earliest_d": "2006 Jul 20 18:00", "latest_dat": "2012 Jun 29 23:59", "grouping": "Basin and Range BARGEN", "stnid": "VINE" }, "geometry": { "type": "Point", "coordinates": [ -117.3634, 36.9953 ] } },
{ "type": "Feature", "properties": { "4chID": "VIMT", "interval": "15.0 sec", "name": "VIMT_SCGN_CS2000", "lat": 34.1264, "lon": -118.5144, "earliest_d": "2000 Jul 12 00:00", "latest_dat": "2018 Feb 27 23:59", "grouping": "Nucleus-SCIGN, Nucleus, PBO Core Network, PBO Analysis Complete", "stnid": "VIMT" }, "geometry": { "type": "Point", "coordinates": [ -118.5144, 34.1264 ] } },
{ "type": "Feature", "properties": { "4chID": "VIMS", "interval": "30.0 sec", "name": "Virginia Institute of Marine Science", "lat": 37.6084, "lon": -75.687, "earliest_d": "1999 Nov 15 00:00", "latest_dat": "2012 Jun 14 23:59", "grouping": "CORS, PBO Expanded Analysis, PBO Analysis Complete", "stnid": "VIMS" }, "geometry": { "type": "Point", "coordinates": [ -75.687, 37.6084 ] } },
{ "type": "Feature", "properties": { "4chID": "VILL", "interval": "30.0 sec", "name": "Villafranca", "lat": 40.4436, "lon": -3.952, "earliest_d": "2010 Sep 01 00:00", "latest_dat": "2018 Feb 26 23:59", "grouping": "IGS", "stnid": "VILL" }, "geometry": { "type": "Point", "coordinates": [ -3.952, 40.4436 ] } },
{ "type": "Feature", "properties": { "4chID": "VIKH", "interval": "30.0 sec", "name": "Kingshill", "lat": 17.7162, "lon": -64.7981, "earliest_d": "2006 Aug 23 00:00", "latest_dat": "2017 Jul 19 19:29", "grouping": "CORS, PBO Analysis Complete, COCONet, Low Latency, COCONetPartner", "stnid": "VIKH" }, "geometry": { "type": "Point", "coordinates": [ -64.7981, 17.7162 ] } },
{ "type": "Feature", "properties": { "4chID": "VIGU", "interval": "15.0 sec", "name": "VIGU", "lat": 39.5579, "lon": -117.1792, "earliest_d": "2004 Mar 24 00:00", "latest_dat": "2014 Aug 29 00:00", "grouping": "MAGNET", "stnid": "VIGU" }, "geometry": { "type": "Point", "coordinates": [ -117.1792, 39.5579 ] } },
{ "type": "Feature", "properties": { "4chID": "VHMR", "interval": "15.0 sec", "name": "Vohemar", "lat": -13.4584, "lon": 49.9212, "earliest_d": "2012 Oct 26 18:18", "latest_dat": "2017 Feb 16 21:39", "grouping": "Met Sites, Africa Array", "stnid": "VHMR" }, "geometry": { "type": "Point", "coordinates": [ 49.9212, -13.4584 ] } },
{ "type": "Feature", "properties": { "4chID": "VFSP", "interval": "15.0 sec", "name": "VFSP", "lat": 36.5008, "lon": -114.5289, "earliest_d": "2010 Jul 26 00:00", "latest_dat": "2017 Oct 05 16:14", "grouping": "MAGNET, Colorado Plateau", "stnid": "VFSP" }, "geometry": { "type": "Point", "coordinates": [ -114.5289, 36.5008 ] } },
{ "type": "Feature", "properties": { "4chID": "VFDG", "interval": "30.0 sec", "name": "Vestfjord Gletscher", "lat": 70.2999, "lon": -29.8176, "earliest_d": "2009 Aug 08 17:40", "latest_dat": "2018 Feb 27 23:59", "grouping": "IPY International Polar Year, Greenland POLENET - GNET, Greenland", "stnid": "VFDG" }, "geometry": { "type": "Point", "coordinates": [ -29.8176, 70.2999 ] } },
{ "type": "Feature", "properties": { "4chID": "VEXA", "interval": "30.0 sec", "name": "Mount Vexation", "lat": -43.6377, "lon": 169.8932, "earliest_d": "2000 Feb 02 19:47", "latest_dat": "2018 Feb 26 23:59", "grouping": "SAGE New Zealand", "stnid": "VEXA" }, "geometry": { "type": "Point", "coordinates": [ 169.8932, -43.6377 ] } },
{ "type": "Feature", "properties": { "4chID": "VERA", "interval": "15.0 sec", "name": "VeraCruz_CRI2009", "lat": 10.8536, "lon": -84.869, "earliest_d": "2009 Aug 02 00:00", "latest_dat": "2018 Feb 27 23:59", "grouping": "Costa Rica, PBO Analysis Complete, COCONet, Met Sites, Low Latency, COCONetRefurb", "stnid": "VERA" }, "geometry": { "type": "Point", "coordinates": [ -84.869, 10.8536 ] } },
{ "type": "Feature", "properties": { "4chID": "VDPR", "interval": "15.0 sec", "name": "ValledupaCOL2010", "lat": 10.4358, "lon": -73.2478, "earliest_d": "2015 Jan 03 00:00", "latest_dat": "2018 Feb 25 23:59", "grouping": "PBO Analysis Complete, COCONet, GeoRED, COCONetPartner", "stnid": "VDPR" }, "geometry": { "type": "Point", "coordinates": [ -73.2478, 10.4358 ] } },
{ "type": "Feature", "properties": { "4chID": "VDCY", "interval": "15.0 sec", "name": "VDCY_SCGN_CS2000", "lat": 34.1786, "lon": -118.22, "earliest_d": "2000 Nov 10 00:00", "latest_dat": "2018 Feb 27 23:59", "grouping": "Education and Outreach, Nucleus-SCIGN, Nucleus, PBO Core Network, PBO Analysis Complete", "stnid": "VDCY" }, "geometry": { "type": "Point", "coordinates": [ -118.22, 34.1786 ] } },
{ "type": "Feature", "properties": { "4chID": "VCVL", "interval": "15.0 sec", "name": "Vacaville_CA2012", "lat": 38.3945, "lon": -121.9469, "earliest_d": "2012 Jun 08 00:00", "latest_dat": "2018 Feb 27 23:59", "grouping": "PBO Affiliated Sites, PBO Analysis Complete", "stnid": "VCVL" }, "geometry": { "type": "Point", "coordinates": [ -121.9469, 38.3945 ] } },
{ "type": "Feature", "properties": { "4chID": "VCST", "interval": "15.0 sec", "name": "Ventucopa Station", "lat": 34.8515, "lon": -119.4839, "earliest_d": "2000 Nov 08 00:00", "latest_dat": "2017 Jun 08 23:59", "grouping": "SCIGN USGS, PBO Analysis Complete", "stnid": "VCST" }, "geometry": { "type": "Point", "coordinates": [ -119.4839, 34.8515 ] } },
{ "type": "Feature", "properties": { "4chID": "VCES", "interval": "15.0 sec", "name": "VCES permanent station - Cotopaxi Volcano", "lat": -0.7917, "lon": -78.3944, "earliest_d": "2016 May 31 18:25", "latest_dat": "2018 Feb 26 23:59", "grouping": "Ecuador-IGEPN", "stnid": "VCES" }, "geometry": { "type": "Point", "coordinates": [ -78.3944, -0.7917 ] } },
{ "type": "Feature", "properties": { "4chID": "VAWI", "interval": "30.0 sec", "name": "Wallops Island", "lat": 37.9343, "lon": -75.4711, "earliest_d": "2006 Sep 12 11:00", "latest_dat": "2015 Dec 27 10:29", "grouping": "CORS, PBO Expanded Analysis, PBO Analysis Complete", "stnid": "VAWI" }, "geometry": { "type": "Point", "coordinates": [ -75.4711, 37.9343 ] } },
{ "type": "Feature", "properties": { "4chID": "VAST", "interval": "30.0 sec", "name": "Melton Estes", "lat": 38.1605, "lon": -79.0476, "earliest_d": "2003 Aug 07 00:00", "latest_dat": "2016 Nov 16 17:59", "grouping": "CORS, PBO Expanded Analysis, PBO Analysis Complete", "stnid": "VAST" }, "geometry": { "type": "Point", "coordinates": [ -79.0476, 38.1605 ] } },
{ "type": "Feature", "properties": { "4chID": "VARI", "interval": "30.0 sec", "name": "Ed Snider", "lat": 37.29, "lon": -77.4024, "earliest_d": "2005 Jun 15 00:00", "latest_dat": "2016 Nov 16 17:59", "grouping": "CORS, PBO Expanded Analysis, PBO Analysis Complete", "stnid": "VARI" }, "geometry": { "type": "Point", "coordinates": [ -77.4024, 37.29 ] } },
{ "type": "Feature", "properties": { "4chID": "VALY", "interval": "30.0 sec", "name": "MASSIE", "lat": 37.3756, "lon": -79.1266, "earliest_d": "2004 May 13 00:00", "latest_dat": "2016 Nov 16 17:59", "grouping": "CORS, PBO Expanded Analysis, PBO Analysis Complete", "stnid": "VALY" }, "geometry": { "type": "Point", "coordinates": [ -79.1266, 37.3756 ] } },
{ "type": "Feature", "properties": { "4chID": "VALP", "interval": "30.0 sec", "name": "Valparaiso Tide Gauge", "lat": -33.0272, "lon": -71.6261, "earliest_d": "2010 Sep 01 00:00", "latest_dat": "2015 Jul 28 23:59", "grouping": "IGS", "stnid": "VALP" }, "geometry": { "type": "Point", "coordinates": [ -71.6261, -33.0272 ] } },
{ "type": "Feature", "properties": { "4chID": "VALD", "interval": "30.0 sec", "name": "VALD CACS-GSD", "lat": 48.0971, "lon": -77.5642, "earliest_d": "2010 Sep 01 00:00", "latest_dat": "2018 Feb 26 23:59", "grouping": "PBO Expanded Analysis, IGS, PBO Analysis Complete", "stnid": "VALD" }, "geometry": { "type": "Point", "coordinates": [ -77.5642, 48.0971 ] } },
{ "type": "Feature", "properties": { "4chID": "VAGP", "interval": "30.0 sec", "name": "VA Gloucester Pt", "lat": 37.2486, "lon": -76.4994, "earliest_d": "2007 Oct 01 01:30", "latest_dat": "2017 Mar 20 17:59", "grouping": "CORS, PBO Expanded Analysis, PBO Analysis Complete", "stnid": "VAGP" }, "geometry": { "type": "Point", "coordinates": [ -76.4994, 37.2486 ] } },
{ "type": "Feature", "properties": { "4chID": "VACS", "interval": "30.0 sec", "name": "Vacoas Meteo", "lat": -20.2971, "lon": 57.497, "earliest_d": "2008 Apr 15 16:00", "latest_dat": "2018 Jan 24 23:59", "grouping": "GGN, IGS, Low Latency", "stnid": "VACS" }, "geometry": { "type": "Point", "coordinates": [ 57.497, -20.2971 ] } },
{ "type": "Feature", "properties": { "4chID": "VA02", "interval": "15.0 sec", "name": "yancyvllrdva2011", "lat": 37.9402, "lon": -77.9861, "earliest_d": "2011 Nov 18 19:51", "latest_dat": "2016 Sep 19 02:43", "grouping": "RAPID-Mineral, PBO Analysis Complete", "stnid": "VA02" }, "geometry": { "type": "Point", "coordinates": [ -77.9861, 37.9402 ] } },
{ "type": "Feature", "properties": { "4chID": "VA01", "interval": "15.0 sec", "name": "westonwineva2011", "lat": 38.0206, "lon": -78.0147, "earliest_d": "2011 Nov 18 16:36", "latest_dat": "2018 Feb 27 23:59", "grouping": "RAPID-Mineral, PBO Analysis Complete", "stnid": "VA01" }, "geometry": { "type": "Point", "coordinates": [ -78.0147, 38.0206 ] } },
{ "type": "Feature", "properties": { "4chID": "UZHL", "interval": "30.0 sec", "name": "Uzhgorod", "lat": 48.632, "lon": 22.2976, "earliest_d": "2010 Sep 01 00:00", "latest_dat": "2017 Oct 18 23:59", "grouping": "IGS", "stnid": "UZHL" }, "geometry": { "type": "Point", "coordinates": [ 22.2976, 48.632 ] } },
{ "type": "Feature", "properties": { "4chID": "UXAL", "interval": "15.0 sec", "name": "Jalapa_TNET_MX_2005", "lat": 19.5164, "lon": -96.9248, "earliest_d": "2005 Sep 14 23:00", "latest_dat": "2018 Feb 27 23:59", "grouping": "PBO Analysis Complete, TLALOCNet Partner, TLALOCNet", "stnid": "UXAL" }, "geometry": { "type": "Point", "coordinates": [ -96.9248, 19.5164 ] } },
{ "type": "Feature", "properties": { "4chID": "UWEV", "interval": "30.0 sec", "name": "Uwekahuna Vault", "lat": 19.4209, "lon": -155.2911, "earliest_d": "1999 May 30 00:00", "latest_dat": "2018 Feb 26 23:59", "grouping": "Hawaii USGS HVO", "stnid": "UWEV" }, "geometry": { "type": "Point", "coordinates": [ -155.2911, 19.4209 ] } },
{ "type": "Feature", "properties": { "4chID": "UVFM", "interval": "30.0 sec", "name": "University of VA Fan Mountain", "lat": 37.8787, "lon": -78.6937, "earliest_d": "2001 Aug 16 00:00", "latest_dat": "2018 Feb 26 23:59", "grouping": "CORS, PBO Expanded Analysis, PBO Analysis Complete", "stnid": "UVFM" }, "geometry": { "type": "Point", "coordinates": [ -78.6937, 37.8787 ] } },
{ "type": "Feature", "properties": { "4chID": "UTUR", "interval": "15.0 sec", "name": "Uturuncu Volcano", "lat": -22.242, "lon": -67.2055, "earliest_d": "2010 Apr 15 16:52", "latest_dat": "2015 Nov 21 23:59", "grouping": "Plutons", "stnid": "UTUR" }, "geometry": { "type": "Point", "coordinates": [ -67.2055, -22.242 ] } },
{ "type": "Feature", "properties": { "4chID": "UTON", "interval": "15.0 sec", "name": "Tonantzintla_MX_2001", "lat": 19.0335, "lon": -98.3162, "earliest_d": "2000 Apr 27 00:07", "latest_dat": "2018 Feb 27 23:59", "grouping": "PBO Analysis Complete, TLALOCNet Partner, TLALOCNet", "stnid": "UTON" }, "geometry": { "type": "Point", "coordinates": [ -98.3162, 19.0335 ] } },
{ "type": "Feature", "properties": { "4chID": "UTMG", "interval": "30.0 sec", "name": "Upper Timmiarmiit Glacier", "lat": 62.9272, "lon": -43.3064, "earliest_d": "2007 Aug 19 17:30", "latest_dat": "2018 Feb 26 23:59", "grouping": "IPY International Polar Year, Greenland POLENET - GNET, Greenland", "stnid": "UTMG" }, "geometry": { "type": "Point", "coordinates": [ -43.3064, 62.9272 ] } },
{ "type": "Feature", "properties": { "4chID": "UTEX", "interval": "15.0 sec", "name": "UTEX industries inc", "lat": 29.7859, "lon": -95.5678, "earliest_d": "2012 Jun 28 18:42", "latest_dat": "2018 Feb 27 23:59", "grouping": "HoustonNet", "stnid": "UTEX" }, "geometry": { "type": "Point", "coordinates": [ -95.5678, 29.7859 ] } },
{ "type": "Feature", "properties": { "4chID": "USUD", "interval": "30.0 sec", "name": "Usuda Deep Space Tracking Station", "lat": 36.1331, "lon": 138.362, "earliest_d": "1992 Jan 01 04:16", "latest_dat": "2018 Feb 26 23:59", "grouping": "GGN, IGS, Low Latency", "stnid": "USUD" }, "geometry": { "type": "Point", "coordinates": [ 138.362, 36.1331 ] } },
{ "type": "Feature", "properties": { "4chID": "USNO", "interval": "30.0 sec", "name": "U.S. Naval Observ", "lat": 38.919, "lon": -77.0662, "earliest_d": "2010 Sep 01 00:00", "latest_dat": "2015 Mar 19 17:50", "grouping": "PBO Expanded Analysis, IGS, PBO Analysis Complete", "stnid": "USNO" }, "geometry": { "type": "Point", "coordinates": [ -77.0662, 38.919 ] } },
{ "type": "Feature", "properties": { "4chID": "USNA", "interval": "30.0 sec", "name": "U.S. Naval Academy", "lat": 38.9833, "lon": -76.4794, "earliest_d": "1996 Mar 01 00:00", "latest_dat": "2005 Nov 30 16:59", "grouping": "PBO Expanded Analysis, IGS, PBO Analysis Complete", "stnid": "USNA" }, "geometry": { "type": "Point", "coordinates": [ -76.4794, 38.9833 ] } },
{ "type": "Feature", "properties": { "4chID": "USN7", "interval": "30.0 sec", "name": "U.S. Naval Observatory Time Service", "lat": 38.9206, "lon": -77.0663, "earliest_d": "2014 Dec 10 00:00", "latest_dat": "2017 Nov 27 23:59", "grouping": "PBO Expanded Analysis, GGN, IGS, PBO Analysis Complete, Low Latency", "stnid": "USN7" }, "geometry": { "type": "Point", "coordinates": [ -77.0663, 38.9206 ] } },
{ "type": "Feature", "properties": { "4chID": "USN3", "interval": "30.0 sec", "name": "U.S. Naval Observatory Time Service", "lat": 38.9206, "lon": -77.0663, "earliest_d": "2004 Jul 14 00:00", "latest_dat": "2014 Nov 11 23:59", "grouping": "PBO Expanded Analysis, GGN, IGS, PBO Analysis Complete", "stnid": "USN3" }, "geometry": { "type": "Point", "coordinates": [ -77.0663, 38.9206 ] } },
{ "type": "Feature", "properties": { "4chID": "USN1", "interval": "30.0 sec", "name": "USNaval Observatory Time Svc", "lat": 38.9205, "lon": -77.0663, "earliest_d": "2002 Mar 25 00:00", "latest_dat": "2004 Jun 27 23:59", "grouping": "GGN", "stnid": "USN1" }, "geometry": { "type": "Point", "coordinates": [ -77.0663, 38.9205 ] } },
{ "type": "Feature", "properties": { "4chID": "USMX", "interval": "15.0 sec", "name": "Universidad de la Sierra", "lat": 29.8217, "lon": -109.681, "earliest_d": "2004 Jun 12 16:58", "latest_dat": "2018 Feb 27 23:59", "grouping": "Northwest Mexico, PBO Analysis Complete, Met Sites, Low Latency, TLALOCNet Core, TLALOCNet", "stnid": "USMX" }, "geometry": { "type": "Point", "coordinates": [ -109.681, 29.8217 ] } },
{ "type": "Feature", "properties": { "4chID": "USLO", "interval": "15.0 sec", "name": "USLO_SCGN_CS2000", "lat": 35.3118, "lon": -120.6611, "earliest_d": "2000 Oct 04 00:00", "latest_dat": "2018 Feb 27 23:59", "grouping": "Nucleus-SCIGN, Nucleus, PBO Core Network, PBO Analysis Complete", "stnid": "USLO" }, "geometry": { "type": "Point", "coordinates": [ -120.6611, 35.3118 ] } },
{ "type": "Feature", "properties": { "4chID": "USGC", "interval": "15.0 sec", "name": "USGC_SCGN_CS1998", "lat": 33.0301, "lon": -116.0853, "earliest_d": "1999 Aug 12 20:46", "latest_dat": "2018 Feb 27 23:59", "grouping": "Nucleus-SCIGN, Nucleus, PBO Core Network, PBO Analysis Complete", "stnid": "USGC" }, "geometry": { "type": "Point", "coordinates": [ -116.0853, 33.0301 ] } },
{ "type": "Feature", "properties": { "4chID": "USC2", "interval": "15.0 sec", "name": "USC 2", "lat": 34.0195, "lon": -118.2773, "earliest_d": "2015 May 07 01:50", "latest_dat": "2018 Feb 24 23:59", "grouping": "SCIGN USGS, PBO Analysis Complete", "stnid": "USC2" }, "geometry": { "type": "Point", "coordinates": [ -118.2773, 34.0195 ] } },
{ "type": "Feature", "properties": { "4chID": "USC1", "interval": "15.0 sec", "name": "University of Southern California", "lat": 34.024, "lon": -118.2851, "earliest_d": "1994 Nov 03 00:00", "latest_dat": "2015 Jul 06 23:59", "grouping": "SCIGN USGS, PBO Analysis Complete", "stnid": "USC1" }, "geometry": { "type": "Point", "coordinates": [ -118.2851, 34.024 ] } },
{ "type": "Feature", "properties": { "4chID": "URUM", "interval": "30.0 sec", "name": "Urumqi - People Republic of China", "lat": 43.8079, "lon": 87.6007, "earliest_d": "2010 Sep 01 00:00", "latest_dat": "2018 Feb 26 23:59", "grouping": "IGS", "stnid": "URUM" }, "geometry": { "type": "Point", "coordinates": [ 87.6007, 43.8079 ] } },
{ "type": "Feature", "properties": { "4chID": "UPVK", "interval": "15.0 sec", "name": "Upernavik Airport", "lat": 72.7883, "lon": -56.128, "earliest_d": "2007 Jun 02 11:41", "latest_dat": "2008 Sep 15 23:59", "grouping": "IPY International Polar Year, Greenland", "stnid": "UPVK" }, "geometry": { "type": "Point", "coordinates": [ -56.128, 72.7883 ] } },
{ "type": "Feature", "properties": { "4chID": "UPSA", "interval": "15.0 sec", "name": "UPSA_BRGN_NV1997", "lat": 39.6271, "lon": -118.8023, "earliest_d": "1997 Oct 30 17:24", "latest_dat": "2017 Nov 17 23:59", "grouping": "Nucleus-BARGEN, Nucleus, Basin and Range BARGEN, PBO Core Network, PBO Analysis Complete", "stnid": "UPSA" }, "geometry": { "type": "Point", "coordinates": [ -118.8023, 39.6271 ] } },
{ "type": "Feature", "properties": { "4chID": "UNSA", "interval": "30.0 sec", "name": "UNSA Salta", "lat": -24.7275, "lon": -65.4076, "earliest_d": "2010 Sep 01 00:00", "latest_dat": "2018 Feb 26 23:59", "grouping": "IGS", "stnid": "UNSA" }, "geometry": { "type": "Point", "coordinates": [ -65.4076, -24.7275 ] } },
{ "type": "Feature", "properties": { "4chID": "UNR2", "interval": "15.0 sec", "name": "University of Nevada Reno 2", "lat": 36.7734, "lon": -114.0544, "earliest_d": "2003 Apr 30 19:13", "latest_dat": "2015 Jul 22 23:59", "grouping": "PBO Expanded Analysis, Las Vegas-UNR, PBO Analysis Complete", "stnid": "UNR2" }, "geometry": { "type": "Point", "coordinates": [ -114.0544, 36.7734 ] } },
{ "type": "Feature", "properties": { "4chID": "UNR1", "interval": "15.0 sec", "name": "UNR1", "lat": 36.2473, "lon": -115.2427, "earliest_d": "2002 Oct 10 00:05", "latest_dat": "2017 Dec 31 23:59", "grouping": "PBO Expanded Analysis, Las Vegas-UNR, PBO Analysis Complete, Low Latency", "stnid": "UNR1" }, "geometry": { "type": "Point", "coordinates": [ -115.2427, 36.2473 ] } },
{ "type": "Feature", "properties": { "4chID": "UNPM", "interval": "15.0 sec", "name": "Puerto_Morelos_MX_2007", "lat": 20.8685, "lon": -86.8682, "earliest_d": "2007 Aug 07 23:30", "latest_dat": "2018 Feb 27 23:59", "grouping": "PBO Analysis Complete, COCONet, Low Latency, COCONetRefurb", "stnid": "UNPM" }, "geometry": { "type": "Point", "coordinates": [ -86.8682, 20.8685 ] } },
{ "type": "Feature", "properties": { "4chID": "UNIV", "interval": "30.0 sec", "name": "Jackson", "lat": 42.2856, "lon": -84.3859, "earliest_d": "2001 Aug 31 20:00", "latest_dat": "2018 Feb 26 23:59", "grouping": "CORS, PBO Expanded Analysis, PBO Analysis Complete", "stnid": "UNIV" }, "geometry": { "type": "Point", "coordinates": [ -84.3859, 42.2856 ] } },
{ "type": "Feature", "properties": { "4chID": "UNIP", "interval": "30.0 sec", "name": "UNIVERSUM UNAM", "lat": 19.3127, "lon": -99.1813, "earliest_d": "2005 Dec 08 21:15", "latest_dat": "2013 Oct 19 16:59", "grouping": "PBO Expanded Analysis, Universidad Nacional Autonoma de Mexico UNAM, PBO Analysis Complete", "stnid": "UNIP" }, "geometry": { "type": "Point", "coordinates": [ -99.1813, 19.3127 ] } },
{ "type": "Feature", "properties": { "4chID": "UNFE", "interval": "30.0 sec", "name": "Ferrara", "lat": 44.833, "lon": 11.5995, "earliest_d": "2010 Sep 01 00:00", "latest_dat": "2010 Oct 07 22:01", "grouping": "IGS", "stnid": "UNFE" }, "geometry": { "type": "Point", "coordinates": [ 11.5995, 44.833 ] } },
{ "type": "Feature", "properties": { "4chID": "UNBN", "interval": "30.0 sec", "name": "University of New Brunswick - Fredericton", "lat": 45.9502, "lon": -66.6417, "earliest_d": "2017 Sep 25 00:00", "latest_dat": "2018 Feb 26 23:59", "grouping": "IGS", "stnid": "UNBN" }, "geometry": { "type": "Point", "coordinates": [ -66.6417, 45.9502 ] } },
{ "type": "Feature", "properties": { "4chID": "UNBJ", "interval": "30.0 sec", "name": "University of New Brunswick - Fredericton", "lat": 45.9502, "lon": -66.6417, "earliest_d": "2010 Sep 01 00:00", "latest_dat": "2018 Feb 26 23:59", "grouping": "PBO Expanded Analysis, IGS, PBO Analysis Complete", "stnid": "UNBJ" }, "geometry": { "type": "Point", "coordinates": [ -66.6417, 45.9502 ] } },
{ "type": "Feature", "properties": { "4chID": "UNB3", "interval": "30.0 sec", "name": "University of New Brunswick", "lat": 45.9502, "lon": -66.6417, "earliest_d": "2015 Jan 01 00:00", "latest_dat": "2016 Nov 28 23:59", "grouping": "IGS", "stnid": "UNB3" }, "geometry": { "type": "Point", "coordinates": [ -66.6417, 45.9502 ] } },
{ "type": "Feature", "properties": { "4chID": "UNB1", "interval": "30.0 sec", "name": "University of New Brunswick - Fredericton", "lat": 45.9502, "lon": -66.6417, "earliest_d": "2002 Jun 10 00:00", "latest_dat": "2006 Aug 15 23:59", "grouping": "PBO Expanded Analysis, IGS, PBO Analysis Complete", "stnid": "UNB1" }, "geometry": { "type": "Point", "coordinates": [ -66.6417, 45.9502 ] } },
{ "type": "Feature", "properties": { "4chID": "UNAC", "interval": "30.0 sec", "name": "UNAVCO L2C", "lat": 40.0612, "lon": -105.2056, "earliest_d": "2005 Oct 20 00:00", "latest_dat": "2013 Oct 27 23:59", "grouping": "GGN-L2C", "stnid": "UNAC" }, "geometry": { "type": "Point", "coordinates": [ -105.2056, 40.0612 ] } },
{ "type": "Feature", "properties": { "4chID": "UMTA", "interval": "30.0 sec", "name": "UMTATA", "lat": -31.5488, "lon": 28.6725, "earliest_d": "2011 Jun 23 00:00", "latest_dat": "2011 Dec 04 23:59", "grouping": "IGS", "stnid": "UMTA" }, "geometry": { "type": "Point", "coordinates": [ 28.6725, -31.5488 ] } },
{ "type": "Feature", "properties": { "4chID": "ULUB", "interval": "15.0 sec", "name": "UNILU", "lat": -11.6306, "lon": 27.4849, "earliest_d": "2009 Nov 25 11:54", "latest_dat": "2014 Aug 04 23:58", "grouping": "Africa Array", "stnid": "ULUB" }, "geometry": { "type": "Point", "coordinates": [ 27.4849, -11.6306 ] } },
{ "type": "Feature", "properties": { "4chID": "ULDI", "interval": "30.0 sec", "name": "ULUNDI", "lat": -28.2931, "lon": 31.4209, "earliest_d": "2011 Jun 23 00:00", "latest_dat": "2018 Feb 26 23:59", "grouping": "IGS", "stnid": "ULDI" }, "geometry": { "type": "Point", "coordinates": [ 31.4209, -28.2931 ] } },
{ "type": "Feature", "properties": { "4chID": "ULAB", "interval": "30.0 sec", "name": "Ulaanbataar", "lat": 47.8651, "lon": 107.0523, "earliest_d": "2010 Sep 01 00:00", "latest_dat": "2018 Feb 26 23:59", "grouping": "IGS", "stnid": "ULAB" }, "geometry": { "type": "Point", "coordinates": [ 107.0523, 47.8651 ] } },
{ "type": "Feature", "properties": { "4chID": "UKAM", "interval": "15.0 sec", "name": "UNIKAM", "lat": -8.7326, "lon": 25.0031, "earliest_d": "2010 Oct 25 09:06", "latest_dat": "2013 Feb 24 11:44", "grouping": "Africa Array", "stnid": "UKAM" }, "geometry": { "type": "Point", "coordinates": [ 25.0031, -8.7326 ] } },
{ "type": "Feature", "properties": { "4chID": "UIGF", "interval": "30.0 sec", "name": "Mexico City-Geofisica_MX_1996", "lat": 19.327, "lon": -99.176, "earliest_d": "1996 May 13 21:38", "latest_dat": "1997 Aug 01 23:59", "grouping": "Popocatapetl", "stnid": "UIGF" }, "geometry": { "type": "Point", "coordinates": [ -99.176, 19.327 ] } },
{ "type": "Feature", "properties": { "4chID": "UHWL", "interval": "15.0 sec", "name": "West Liberty Airport(Deep)", "lat": 30.0577, "lon": -94.9784, "earliest_d": "2014 May 09 19:36", "latest_dat": "2018 Feb 27 23:59", "grouping": "HoustonNet", "stnid": "UHWL" }, "geometry": { "type": "Point", "coordinates": [ -94.9784, 30.0577 ] } },
{ "type": "Feature", "properties": { "4chID": "UHSL", "interval": "15.0 sec", "name": "SugarLandUSA2014", "lat": 29.5747, "lon": -95.6515, "earliest_d": "2014 Mar 07 23:10", "latest_dat": "2018 Feb 17 23:59", "grouping": "HoustonNet", "stnid": "UHSL" }, "geometry": { "type": "Point", "coordinates": [ -95.6515, 29.5747 ] } },
{ "type": "Feature", "properties": { "4chID": "UHRI", "interval": "15.0 sec", "name": "Rice University", "lat": 29.7192, "lon": -95.4025, "earliest_d": "2014 Apr 29 23:09", "latest_dat": "2018 Feb 27 23:59", "grouping": "HoustonNet", "stnid": "UHRI" }, "geometry": { "type": "Point", "coordinates": [ -95.4025, 29.7192 ] } },
{ "type": "Feature", "properties": { "4chID": "UHOG", "interval": "15.0 sec", "name": "UHOG", "lat": 39.6269, "lon": -118.8023, "earliest_d": "2004 Feb 04 00:00", "latest_dat": "2011 May 24 00:00", "grouping": "MAGNET", "stnid": "UHOG" }, "geometry": { "type": "Point", "coordinates": [ -118.8023, 39.6269 ] } },
{ "type": "Feature", "properties": { "4chID": "UHL1", "interval": "15.0 sec", "name": "West Liberty Airport", "lat": 30.0577, "lon": -94.9785, "earliest_d": "2014 May 09 20:12", "latest_dat": "2018 Feb 27 23:59", "grouping": "HoustonNet", "stnid": "UHL1" }, "geometry": { "type": "Point", "coordinates": [ -94.9785, 30.0577 ] } },
{ "type": "Feature", "properties": { "4chID": "UHJF", "interval": "15.0 sec", "name": "Jones State Forest-deep", "lat": 30.2363, "lon": -95.4831, "earliest_d": "2014 May 22 00:08", "latest_dat": "2018 Feb 27 23:59", "grouping": "HoustonNet", "stnid": "UHJF" }, "geometry": { "type": "Point", "coordinates": [ -95.4831, 30.2363 ] } },
{ "type": "Feature", "properties": { "4chID": "UHF1", "interval": "15.0 sec", "name": "Jones State Forest-shallow", "lat": 30.2363, "lon": -95.4831, "earliest_d": "2014 May 21 23:53", "latest_dat": "2018 Feb 27 23:59", "grouping": "HoustonNet", "stnid": "UHF1" }, "geometry": { "type": "Point", "coordinates": [ -95.4831, 30.2363 ] } },
{ "type": "Feature", "properties": { "4chID": "UHEP", "interval": "15.0 sec", "name": "University of Houston-NCALM", "lat": 29.7194, "lon": -95.3271, "earliest_d": "2014 May 12 19:36", "latest_dat": "2018 Feb 15 23:59", "grouping": "HoustonNet", "stnid": "UHEP" }, "geometry": { "type": "Point", "coordinates": [ -95.3271, 29.7194 ] } },
{ "type": "Feature", "properties": { "4chID": "UHEB", "interval": "15.0 sec", "name": "East Bernard High School", "lat": 29.5264, "lon": -96.066, "earliest_d": "2014 Aug 04 19:57", "latest_dat": "2018 Feb 27 23:59", "grouping": "HoustonNet", "stnid": "UHEB" }, "geometry": { "type": "Point", "coordinates": [ -96.066, 29.5264 ] } },
{ "type": "Feature", "properties": { "4chID": "UHDT", "interval": "15.0 sec", "name": "UHDT", "lat": 29.766, "lon": -95.3594, "earliest_d": "2013 Jul 23 18:18", "latest_dat": "2018 Feb 27 23:59", "grouping": "HoustonNet", "stnid": "UHDT" }, "geometry": { "type": "Point", "coordinates": [ -95.3594, 29.766 ] } },
{ "type": "Feature", "properties": { "4chID": "UHCR", "interval": "15.0 sec", "name": "University of Houston-Cinco Ranch", "lat": 29.7281, "lon": -95.7568, "earliest_d": "2014 Feb 13 18:34", "latest_dat": "2017 Nov 06 23:59", "grouping": "HoustonNet", "stnid": "UHCR" }, "geometry": { "type": "Point", "coordinates": [ -95.7568, 29.7281 ] } },
{ "type": "Feature", "properties": { "4chID": "UHCL", "interval": "15.0 sec", "name": "University of Houston-Clear Lake", "lat": 29.5777, "lon": -95.1042, "earliest_d": "2014 Mar 29 00:39", "latest_dat": "2018 Feb 27 23:59", "grouping": "HoustonNet", "stnid": "UHCL" }, "geometry": { "type": "Point", "coordinates": [ -95.1042, 29.5777 ] } },
{ "type": "Feature", "properties": { "4chID": "UHC3", "interval": "15.0 sec", "name": "UH Coastal Center station 3", "lat": 29.3904, "lon": -95.0439, "earliest_d": "2014 Feb 18 22:07", "latest_dat": "2018 Feb 27 23:59", "grouping": "HoustonNet", "stnid": "UHC3" }, "geometry": { "type": "Point", "coordinates": [ -95.0439, 29.3904 ] } },
{ "type": "Feature", "properties": { "4chID": "UHC2", "interval": "15.0 sec", "name": "UH Coastal Center station 2", "lat": 29.3904, "lon": -95.0439, "earliest_d": "2014 Feb 19 00:00", "latest_dat": "2018 Feb 27 23:59", "grouping": "HoustonNet", "stnid": "UHC2" }, "geometry": { "type": "Point", "coordinates": [ -95.0439, 29.3904 ] } },
{ "type": "Feature", "properties": { "4chID": "UHC1", "interval": "15.0 sec", "name": "UH Coastal Center station 1", "lat": 29.3904, "lon": -95.044, "earliest_d": "2014 Feb 18 22:00", "latest_dat": "2018 Feb 27 23:59", "grouping": "HoustonNet", "stnid": "UHC1" }, "geometry": { "type": "Point", "coordinates": [ -95.044, 29.3904 ] } },
{ "type": "Feature", "properties": { "4chID": "UHC0", "interval": "15.0 sec", "name": "UH Coastal Center station 0", "lat": 29.3904, "lon": -95.0439, "earliest_d": "2014 Feb 18 22:09", "latest_dat": "2018 Feb 27 23:59", "grouping": "HoustonNet, Met Sites", "stnid": "UHC0" }, "geometry": { "type": "Point", "coordinates": [ -95.0439, 29.3904 ] } },
{ "type": "Feature", "properties": { "4chID": "UH02", "interval": "30.0 sec", "name": "UH02", "lat": 30.3152, "lon": -95.4571, "earliest_d": "2015 Jan 01 00:00", "latest_dat": "2018 Feb 26 23:59", "grouping": "HoustonNet", "stnid": "UH02" }, "geometry": { "type": "Point", "coordinates": [ -95.4571, 30.3152 ] } },
{ "type": "Feature", "properties": { "4chID": "UH01", "interval": "15.0 sec", "name": "UH01", "lat": 29.7225, "lon": -95.3454, "earliest_d": "2012 Sep 27 22:55", "latest_dat": "2018 Feb 27 23:59", "grouping": "HoustonNet", "stnid": "UH01" }, "geometry": { "type": "Point", "coordinates": [ -95.3454, 29.7225 ] } },
{ "type": "Feature", "properties": { "4chID": "UGEO", "interval": "15.0 sec", "name": "ugeo_tnet_mx1998", "lat": 20.6939, "lon": -103.35, "earliest_d": "2000 Mar 01 00:23", "latest_dat": "2017 Dec 01 18:30", "grouping": "PBO Analysis Complete, TLALOCNet Partner, TLALOCNet", "stnid": "UGEO" }, "geometry": { "type": "Point", "coordinates": [ -103.35, 20.6939 ] } },
{ "type": "Feature", "properties": { "4chID": "UFPR", "interval": "15.0 sec", "name": "CURITIBA UFPR", "lat": -25.4484, "lon": -49.231, "earliest_d": "2010 Sep 01 00:00", "latest_dat": "2018 Feb 26 23:59", "grouping": "IGS", "stnid": "UFPR" }, "geometry": { "type": "Point", "coordinates": [ -49.231, -25.4484 ] } },
{ "type": "Feature", "properties": { "4chID": "UFOS", "interval": "15.0 sec", "name": "UFOS", "lat": 37.3988, "lon": -117.109, "earliest_d": "2005 May 14 00:00", "latest_dat": "2017 Jul 11 00:00", "grouping": "MAGNET", "stnid": "UFOS" }, "geometry": { "type": "Point", "coordinates": [ -117.109, 37.3988 ] } },
{ "type": "Feature", "properties": { "4chID": "UDMC", "interval": "30.0 sec", "name": "Univ.of Damascus", "lat": 33.5145, "lon": 36.2851, "earliest_d": "2001 May 23 00:00", "latest_dat": "2003 Oct 16 00:00", "grouping": "SENH, Mediterranean", "stnid": "UDMC" }, "geometry": { "type": "Point", "coordinates": [ 36.2851, 33.5145 ] } },
{ "type": "Feature", "properties": { "4chID": "UDEC", "interval": "15.0 sec", "name": "Universidad de Concepcion", "lat": -37.4723, "lon": -72.3448, "earliest_d": "2010 Jan 01 00:00", "latest_dat": "2018 Feb 27 23:59", "grouping": "CAP Andes", "stnid": "UDEC" }, "geometry": { "type": "Point", "coordinates": [ -72.3448, -37.4723 ] } },
{ "type": "Feature", "properties": { "4chID": "UCSB", "interval": "15.0 sec", "name": "UC Santa Barbara", "lat": 34.4133, "lon": -119.8438, "earliest_d": "1998 Oct 08 21:34", "latest_dat": "2015 Oct 19 23:59", "grouping": "SCIGN USGS, PBO Analysis Complete", "stnid": "UCSB" }, "geometry": { "type": "Point", "coordinates": [ -119.8438, 34.4133 ] } },
{ "type": "Feature", "properties": { "4chID": "UCOM", "interval": "30.0 sec", "name": "Manzanillo-Univ_MX_2007", "lat": 19.1241, "lon": -104.4015, "earliest_d": "2007 Feb 08 00:03", "latest_dat": "2015 Jun 01 19:13", "grouping": "Jalisco", "stnid": "UCOM" }, "geometry": { "type": "Point", "coordinates": [ -104.4015, 19.1241 ] } },
{ "type": "Feature", "properties": { "4chID": "UCOE", "interval": "15.0 sec", "name": "Coeneo_TNET_MX_2003", "lat": 19.8132, "lon": -101.6944, "earliest_d": "2005 Oct 07 14:35", "latest_dat": "2018 Feb 27 23:59", "grouping": "PBO Analysis Complete, TLALOCNet Partner, TLALOCNet", "stnid": "UCOE" }, "geometry": { "type": "Point", "coordinates": [ -101.6944, 19.8132 ] } },
{ "type": "Feature", "properties": { "4chID": "UCLU", "interval": "30.0 sec", "name": "Ucluelet", "lat": 48.9256, "lon": -125.5416, "earliest_d": "2010 Sep 01 00:00", "latest_dat": "2018 Feb 26 23:59", "grouping": "PBO Expanded Analysis, IGS, PBO Analysis Complete", "stnid": "UCLU" }, "geometry": { "type": "Point", "coordinates": [ -125.5416, 48.9256 ] } },
{ "type": "Feature", "properties": { "4chID": "UCLP", "interval": "15.0 sec", "name": "UCLA", "lat": 34.0691, "lon": -118.4419, "earliest_d": "1994 Nov 30 00:00", "latest_dat": "2018 Feb 26 23:59", "grouping": "SCIGN USGS, IGS, PBO Analysis Complete", "stnid": "UCLP" }, "geometry": { "type": "Point", "coordinates": [ -118.4419, 34.0691 ] } },
{ "type": "Feature", "properties": { "4chID": "UAGU", "interval": "15.0 sec", "name": "Aguascalientes_TNET_MX_2008", "lat": 21.9185, "lon": -102.315, "earliest_d": "2008 Apr 05 00:00", "latest_dat": "2017 Dec 05 23:59", "grouping": "PBO Analysis Complete, TLALOCNet Partner, TLALOCNet", "stnid": "UAGU" }, "geometry": { "type": "Point", "coordinates": [ -102.315, 21.9185 ] } },
{ "type": "Feature", "properties": { "4chID": "TXWN", "interval": "30.0 sec", "name": "TXWN", "lat": 29.3288, "lon": -96.092, "earliest_d": "2015 Jan 01 00:00", "latest_dat": "2018 Feb 26 23:59", "grouping": "HoustonNet", "stnid": "TXWN" }, "geometry": { "type": "Point", "coordinates": [ -96.092, 29.3288 ] } },
{ "type": "Feature", "properties": { "4chID": "TXTG", "interval": "30.0 sec", "name": "TXTG", "lat": 29.8975, "lon": -95.2974, "earliest_d": "2015 Jun 18 22:55", "latest_dat": "2018 Feb 26 23:59", "grouping": "HoustonNet", "stnid": "TXTG" }, "geometry": { "type": "Point", "coordinates": [ -95.2974, 29.8975 ] } },
{ "type": "Feature", "properties": { "4chID": "TXMG", "interval": "30.0 sec", "name": "TXMG", "lat": 28.9829, "lon": -95.9635, "earliest_d": "2015 Jan 01 00:00", "latest_dat": "2018 Feb 26 23:59", "grouping": "HoustonNet", "stnid": "TXMG" }, "geometry": { "type": "Point", "coordinates": [ -95.9635, 28.9829 ] } },
{ "type": "Feature", "properties": { "4chID": "TXLQ", "interval": "30.0 sec", "name": "TXLQ", "lat": 29.358, "lon": -94.9528, "earliest_d": "2015 Jan 01 00:00", "latest_dat": "2018 Feb 26 23:59", "grouping": "HoustonNet", "stnid": "TXLQ" }, "geometry": { "type": "Point", "coordinates": [ -94.9528, 29.358 ] } },
{ "type": "Feature", "properties": { "4chID": "TXHS", "interval": "30.0 sec", "name": "TXHS", "lat": 29.7161, "lon": -95.5555, "earliest_d": "2015 Jan 01 00:00", "latest_dat": "2018 Feb 26 23:59", "grouping": "HoustonNet", "stnid": "TXHS" }, "geometry": { "type": "Point", "coordinates": [ -95.5555, 29.7161 ] } },
{ "type": "Feature", "properties": { "4chID": "TXCF", "interval": "30.0 sec", "name": "TXCF", "lat": 29.7037, "lon": -96.5723, "earliest_d": "2015 Jan 01 00:00", "latest_dat": "2017 Mar 17 23:59", "grouping": "HoustonNet", "stnid": "TXCF" }, "geometry": { "type": "Point", "coordinates": [ -96.5723, 29.7037 ] } },
{ "type": "Feature", "properties": { "4chID": "TWTF", "interval": "30.0 sec", "name": "Taoyuan", "lat": 24.9536, "lon": 121.1645, "earliest_d": "2010 Sep 01 00:00", "latest_dat": "2018 Feb 26 23:59", "grouping": "IGS", "stnid": "TWTF" }, "geometry": { "type": "Point", "coordinates": [ 121.1645, 24.9536 ] } },
{ "type": "Feature", "properties": { "4chID": "TWRI", "interval": "15.0 sec", "name": "West Ridge", "lat": 46.1979, "lon": -122.2119, "earliest_d": "2004 Oct 06 00:00", "latest_dat": "2017 Nov 18 23:59", "grouping": "USGS Pacific Northwest", "stnid": "TWRI" }, "geometry": { "type": "Point", "coordinates": [ -122.2119, 46.1979 ] } },
{ "type": "Feature", "properties": { "4chID": "TWMS", "interval": "15.0 sec", "name": "Townsend Middle School", "lat": 33.9725, "lon": -117.7255, "earliest_d": "2001 Apr 12 17:57", "latest_dat": "2018 Feb 26 23:59", "grouping": "SCIGN USGS, PBO Analysis Complete", "stnid": "TWMS" }, "geometry": { "type": "Point", "coordinates": [ -117.7255, 33.9725 ] } },
{ "type": "Feature", "properties": { "4chID": "TWIW", "interval": "15.0 sec", "name": "Windy West", "lat": 46.2129, "lon": -122.1587, "earliest_d": "2004 Oct 11 19:30", "latest_dat": "2018 Feb 26 23:59", "grouping": "USGS Pacific Northwest", "stnid": "TWIW" }, "geometry": { "type": "Point", "coordinates": [ -122.1587, 46.2129 ] } },
{ "type": "Feature", "properties": { "4chID": "TWHL", "interval": "15.0 sec", "name": "TWHL_PNGA_WA2001", "lat": 47.0159, "lon": -122.9229, "earliest_d": "2001 Mar 23 20:04", "latest_dat": "2018 Feb 27 23:59", "grouping": "Nucleus-PANGA, Nucleus, Education and Outreach, PBO Core Network, PBO Analysis Complete", "stnid": "TWHL" }, "geometry": { "type": "Point", "coordinates": [ -122.9229, 47.0159 ] } },
{ "type": "Feature", "properties": { "4chID": "TVST", "interval": "30.0 sec", "name": "Taal Volcano Station", "lat": 14.034, "lon": 121.0018, "earliest_d": "1998 Jun 05 03:06", "latest_dat": "2005 Jul 05 23:59", "grouping": "SENH, Philippines", "stnid": "TVST" }, "geometry": { "type": "Point", "coordinates": [ 121.0018, 14.034 ] } },
{ "type": "Feature", "properties": { "4chID": "TVRN", "interval": "15.0 sec", "name": "Taverna di Montalto Uffugo", "lat": 39.4314, "lon": 16.2264, "earliest_d": "2006 Nov 17 15:34", "latest_dat": "2011 Jul 02 23:59", "grouping": "Calabria", "stnid": "TVRN" }, "geometry": { "type": "Point", "coordinates": [ 16.2264, 39.4314 ] } },
{ "type": "Feature", "properties": { "4chID": "TV15", "interval": "10.0 sec", "name": "Binintiang Malaki", "lat": 14.0346, "lon": 120.9672, "earliest_d": "2001 Mar 14 01:40", "latest_dat": "2004 Sep 13 04:16", "grouping": "Taal L1", "stnid": "TV15" }, "geometry": { "type": "Point", "coordinates": [ 120.9672, 14.0346 ] } },
{ "type": "Feature", "properties": { "4chID": "TV14", "interval": "10.0 sec", "name": "Buso-buso", "lat": 14.0239, "lon": 120.9502, "earliest_d": "2001 Mar 14 03:06", "latest_dat": "2005 May 20 02:36", "grouping": "Taal L1", "stnid": "TV14" }, "geometry": { "type": "Point", "coordinates": [ 120.9502, 14.0239 ] } },
{ "type": "Feature", "properties": { "4chID": "TV13", "interval": "10.0 sec", "name": "Tagaytay", "lat": 14.1003, "lon": 120.9381, "earliest_d": "1999 Dec 12 11:26", "latest_dat": "2001 Mar 14 23:59", "grouping": "Taal L1", "stnid": "TV13" }, "geometry": { "type": "Point", "coordinates": [ 120.9381, 14.1003 ] } },
{ "type": "Feature", "properties": { "4chID": "TV12", "interval": "10.0 sec", "name": "Main Crater", "lat": 14.0134, "lon": 121.0037, "earliest_d": "1999 Jun 13 11:22", "latest_dat": "2005 Jul 06 00:00", "grouping": "Taal L1", "stnid": "TV12" }, "geometry": { "type": "Point", "coordinates": [ 121.0037, 14.0134 ] } },
{ "type": "Feature", "properties": { "4chID": "TV11", "interval": "10.0 sec", "name": "Buco", "lat": 14.0844, "lon": 120.9867, "earliest_d": "1999 Jun 13 11:22", "latest_dat": "2004 Dec 19 04:09", "grouping": "Taal L1", "stnid": "TV11" }, "geometry": { "type": "Point", "coordinates": [ 120.9867, 14.0844 ] } },
{ "type": "Feature", "properties": { "4chID": "TV10", "interval": "10.0 sec", "name": "Maria Paz", "lat": 14.0419, "lon": 121.0695, "earliest_d": "1999 Jun 13 11:22", "latest_dat": "2005 Mar 13 18:47", "grouping": "Taal L1", "stnid": "TV10" }, "geometry": { "type": "Point", "coordinates": [ 121.0695, 14.0419 ] } },
{ "type": "Feature", "properties": { "4chID": "TV08", "interval": "10.0 sec", "name": "Barigon", "lat": 13.9814, "lon": 120.9161, "earliest_d": "1999 Jun 13 11:22", "latest_dat": "2005 Jul 06 00:00", "grouping": "Taal L1", "stnid": "TV08" }, "geometry": { "type": "Point", "coordinates": [ 120.9161, 13.9814 ] } },
{ "type": "Feature", "properties": { "4chID": "TV07", "interval": "10.0 sec", "name": "Pinagulbuan", "lat": 14.0142, "lon": 121.016, "earliest_d": "1999 Dec 14 03:33", "latest_dat": "2005 Jul 06 00:00", "grouping": "Taal L1", "stnid": "TV07" }, "geometry": { "type": "Point", "coordinates": [ 121.016, 14.0142 ] } },
{ "type": "Feature", "properties": { "4chID": "TV06", "interval": "10.0 sec", "name": "Calauit", "lat": 14.0004, "lon": 121.0143, "earliest_d": "1999 Jun 13 11:22", "latest_dat": "2005 Jul 06 00:00", "grouping": "Taal L1", "stnid": "TV06" }, "geometry": { "type": "Point", "coordinates": [ 121.0143, 14.0004 ] } },
{ "type": "Feature", "properties": { "4chID": "TV05", "interval": "10.0 sec", "name": "Pira-piraso Point", "lat": 14.0391, "lon": 121.0152, "earliest_d": "1999 Jun 13 11:22", "latest_dat": "2005 Jul 06 00:00", "grouping": "Taal L1", "stnid": "TV05" }, "geometry": { "type": "Point", "coordinates": [ 121.0152, 14.0391 ] } },
{ "type": "Feature", "properties": { "4chID": "TV04", "interval": "10.0 sec", "name": "Binintiang Malaki", "lat": 14.0381, "lon": 120.971, "earliest_d": "1999 Jun 13 11:22", "latest_dat": "1999 Jul 14 09:46", "grouping": "Taal L1", "stnid": "TV04" }, "geometry": { "type": "Point", "coordinates": [ 120.971, 14.0381 ] } },
{ "type": "Feature", "properties": { "4chID": "TV03", "interval": "10.0 sec", "name": "Alas-as", "lat": 14.012, "lon": 120.9729, "earliest_d": "1999 Jun 13 11:22", "latest_dat": "2005 Jul 06 00:00", "grouping": "Taal L1", "stnid": "TV03" }, "geometry": { "type": "Point", "coordinates": [ 120.9729, 14.012 ] } },
{ "type": "Feature", "properties": { "4chID": "TV02", "interval": "10.0 sec", "name": "Balantoc", "lat": 14.0206, "lon": 120.9889, "earliest_d": "1999 Jun 13 11:22", "latest_dat": "2003 Jun 13 23:58", "grouping": "Taal L1", "stnid": "TV02" }, "geometry": { "type": "Point", "coordinates": [ 120.9889, 14.0206 ] } },
{ "type": "Feature", "properties": { "4chID": "TV01", "interval": "10.0 sec", "name": "Crater Rim", "lat": 14.0055, "lon": 121.0064, "earliest_d": "1999 Jun 13 11:22", "latest_dat": "2005 Jul 06 00:00", "grouping": "Taal L1", "stnid": "TV01" }, "geometry": { "type": "Point", "coordinates": [ 121.0064, 14.0055 ] } },
{ "type": "Feature", "properties": { "4chID": "TUZG", "interval": "15.0 sec", "name": "TUZG", "lat": -24.0316, "lon": -66.5165, "earliest_d": "2009 Nov 04 14:28", "latest_dat": "2015 Feb 26 23:59", "grouping": "Puna-Andes", "stnid": "TUZG" }, "geometry": { "type": "Point", "coordinates": [ -66.5165, -24.0316 ] } },
{ "type": "Feature", "properties": { "4chID": "TURT", "interval": "15.0 sec", "name": "TURT", "lat": 40.1032, "lon": -120.0827, "earliest_d": "2009 Nov 17 00:00", "latest_dat": "2016 Sep 14 00:00", "grouping": "MAGNET", "stnid": "TURT" }, "geometry": { "type": "Point", "coordinates": [ -120.0827, 40.1032 ] } },
{ "type": "Feature", "properties": { "4chID": "TURN", "interval": "15.0 sec", "name": "TURN", "lat": 39.8588, "lon": -120.4167, "earliest_d": "2007 May 02 00:00", "latest_dat": "2017 Sep 08 00:00", "grouping": "MAGNET", "stnid": "TURN" }, "geometry": { "type": "Point", "coordinates": [ -120.4167, 39.8588 ] } },
{ "type": "Feature", "properties": { "4chID": "TUNG", "interval": "15.0 sec", "name": "TUNG_BRGN_NV1996", "lat": 40.4032, "lon": -118.2575, "earliest_d": "1996 Jul 20 19:32", "latest_dat": "2018 Feb 27 23:59", "grouping": "Nucleus-BARGEN, Nucleus, Basin and Range BARGEN, PBO Core Network, PBO Analysis Complete", "stnid": "TUNG" }, "geometry": { "type": "Point", "coordinates": [ -118.2575, 40.4032 ] } },
{ "type": "Feature", "properties": { "4chID": "TULN", "interval": "15.0 sec", "name": "TULN", "lat": 40.0689, "lon": -118.7163, "earliest_d": "2004 Jan 30 00:00", "latest_dat": "2007 Oct 11 00:00", "grouping": "MAGNET", "stnid": "TULN" }, "geometry": { "type": "Point", "coordinates": [ -118.7163, 40.0689 ] } },
{ "type": "Feature", "properties": { "4chID": "TULE", "interval": "15.0 sec", "name": "TULE", "lat": 41.0178, "lon": -120.023, "earliest_d": "2006 Jun 08 00:00", "latest_dat": "2014 Sep 26 00:00", "grouping": "MAGNET", "stnid": "TULE" }, "geometry": { "type": "Point", "coordinates": [ -120.023, 41.0178 ] } },
{ "type": "Feature", "properties": { "4chID": "TUKT", "interval": "30.0 sec", "name": "Tuktoyaktuk", "lat": 69.4382, "lon": -132.9943, "earliest_d": "2010 Sep 01 00:00", "latest_dat": "2015 Dec 15 23:59", "grouping": "PBO Expanded Analysis, IGS, PBO Analysis Complete", "stnid": "TUKT" }, "geometry": { "type": "Point", "coordinates": [ -132.9943, 69.4382 ] } },
{ "type": "Feature", "properties": { "4chID": "TUKC", "interval": "30.0 sec", "name": "Tukuyu", "lat": -9.3316, "lon": 33.7516, "earliest_d": "2008 Oct 15 15:06", "latest_dat": "2014 Jan 08 23:59", "grouping": "Tanzania", "stnid": "TUKC" }, "geometry": { "type": "Point", "coordinates": [ 33.7516, -9.3316 ] } },
{ "type": "Feature", "properties": { "4chID": "TUBI", "interval": "30.0 sec", "name": "Tubitak", "lat": 40.7867, "lon": 29.4507, "earliest_d": "1998 May 07 00:00", "latest_dat": "2018 Feb 26 23:59", "grouping": "SENH, Mediterranean, IGS", "stnid": "TUBI" }, "geometry": { "type": "Point", "coordinates": [ 29.4507, 40.7867 ] } },
{ "type": "Feature", "properties": { "4chID": "TTUW", "interval": "15.0 sec", "name": "UWI_CN45_TTO2014", "lat": 10.6395, "lon": -61.399, "earliest_d": "2014 Jan 14 00:00", "latest_dat": "2018 Feb 27 23:59", "grouping": "PBO Analysis Complete, COCONet, Met Sites, Low Latency, COCONetCore", "stnid": "TTUW" }, "geometry": { "type": "Point", "coordinates": [ -61.399, 10.6395 ] } },
{ "type": "Feature", "properties": { "4chID": "TTSF", "interval": "15.0 sec", "name": "SanFernanTTO2015", "lat": 10.2767, "lon": -61.4656, "earliest_d": "2015 May 10 00:00", "latest_dat": "2018 Feb 27 23:59", "grouping": "PBO Analysis Complete, COCONet, Met Sites, Low Latency, COCONetCore", "stnid": "TTSF" }, "geometry": { "type": "Point", "coordinates": [ -61.4656, 10.2767 ] } },
{ "type": "Feature", "properties": { "4chID": "TSWY", "interval": "15.0 sec", "name": "TSWY_EBRY_WY2001", "lat": 43.6741, "lon": -110.5975, "earliest_d": "2001 Jun 08 23:29", "latest_dat": "2018 Feb 27 23:59", "grouping": "EBRY, Nucleus-EBRY, Nucleus, Education and Outreach, Met Sites, PBO Core Network, PBO Analysis Complete, Low Latency", "stnid": "TSWY" }, "geometry": { "type": "Point", "coordinates": [ -110.5975, 43.6741 ] } },
{ "type": "Feature", "properties": { "4chID": "TSTU", "interval": "15.0 sec", "name": "Studebaker", "lat": 46.2369, "lon": -122.2241, "earliest_d": "2004 Oct 15 00:00", "latest_dat": "2018 Feb 26 23:59", "grouping": "USGS Pacific Northwest", "stnid": "TSTU" }, "geometry": { "type": "Point", "coordinates": [ -122.2241, 46.2369 ] } },
{ "type": "Feature", "properties": { "4chID": "TSM1", "interval": "15.0 sec", "name": "Tsum Valley", "lat": 28.5119, "lon": 85.0827, "earliest_d": "2015 Jun 11 05:48", "latest_dat": "2016 Apr 22 23:59", "grouping": "Nepal", "stnid": "TSM1" }, "geometry": { "type": "Point", "coordinates": [ 85.0827, 28.5119 ] } },
{ "type": "Feature", "properties": { "4chID": "TSKB", "interval": "30.0 sec", "name": "Tsukuba ROGUE site", "lat": 36.1057, "lon": 140.0875, "earliest_d": "2010 Sep 01 00:00", "latest_dat": "2018 Feb 26 23:59", "grouping": "IGS", "stnid": "TSKB" }, "geometry": { "type": "Point", "coordinates": [ 140.0875, 36.1057 ] } },
{ "type": "Feature", "properties": { "4chID": "TSK2", "interval": "30.0 sec", "name": "TSUKUBA2-A", "lat": 36.1056, "lon": 140.0871, "earliest_d": "2010 Jan 01 00:00", "latest_dat": "2018 Feb 26 23:59", "grouping": "IGS", "stnid": "TSK2" }, "geometry": { "type": "Point", "coordinates": [ 140.0871, 36.1056 ] } },
{ "type": "Feature", "properties": { "4chID": "TSFT", "interval": "15.0 sec", "name": "TSFT", "lat": 29.8063, "lon": -95.48, "earliest_d": "2013 May 17 18:36", "latest_dat": "2018 Feb 27 23:59", "grouping": "HoustonNet", "stnid": "TSFT" }, "geometry": { "type": "Point", "coordinates": [ -95.48, 29.8063 ] } },
{ "type": "Feature", "properties": { "4chID": "TSEP", "interval": "15.0 sec", "name": "September Lobe", "lat": 46.2001, "lon": -122.1906, "earliest_d": "2012 Aug 04 00:00", "latest_dat": "2017 Feb 14 23:59", "grouping": "USGS Pacific Northwest", "stnid": "TSEP" }, "geometry": { "type": "Point", "coordinates": [ -122.1906, 46.2001 ] } },
{ "type": "Feature", "properties": { "4chID": "TRUC", "interval": "15.0 sec", "name": "TRUC", "lat": 39.2958, "lon": -120.2277, "earliest_d": "2005 Oct 14 00:00", "latest_dat": "2017 Aug 14 00:00", "grouping": "MAGNET", "stnid": "TRUC" }, "geometry": { "type": "Point", "coordinates": [ -120.2277, 39.2958 ] } },
{ "type": "Feature", "properties": { "4chID": "TRTA", "interval": "15.0 sec", "name": "Tarata", "lat": -17.4824, "lon": -70.0414, "earliest_d": "2012 Jan 01 00:00", "latest_dat": "2014 Dec 28 23:59", "grouping": "Andes", "stnid": "TRTA" }, "geometry": { "type": "Point", "coordinates": [ -70.0414, -17.4824 ] } },
{ "type": "Feature", "properties": { "4chID": "TROY", "interval": "30.0 sec", "name": "Troy", "lat": 34.84, "lon": -116.53, "earliest_d": "2000 Jan 14 00:02", "latest_dat": "2010 Feb 03 07:59", "grouping": "SCIGN USGS, PBO Analysis Complete", "stnid": "TROY" }, "geometry": { "type": "Point", "coordinates": [ -116.53, 34.84 ] } },